,id,type,english_label,longitude,latitude,english_desc
0,Q743784,item,Čanjevo,16.339,46.106,human settlement
1,Q743820,item,Haversin railway station,5.194392,50.249057,railway station in Belgium
2,Q743913,item,Somló,17.371186,47.147758,hill
3,Q743921,item,"Kobylanka, Podlaskie Voivodeship",23.63099,53.02697,village of Poland
4,Q743923,item,Saint-Seurin-de-Cadourne,-0.78916666666667,45.286388888889,"commune in Gironde, France"
5,Q743927,item,Vauville,-1.8463888888889,49.6375,"former commune in Manche, France"
6,Q743938,item,"Belec, Zlatar",16.120387232971,46.132147024921,human settlement
7,Q743948,item,Fawley,-0.91,51.576,"village and civil parish in Buckinghamshire, UK"
8,Q744053,item,Gmina Grajewo,22.45,53.65,rural gmina of Poland
9,Q744070,item,Pietà,14.483333333333,35.883333333333,town in Malta
10,Q744174,item,Montcel,3.0661111111111,46.014722222222,"commune in Puy-de-Dôme, France"
11,Q744223,item,Museum Tower,34.7872,32.0789,
12,Q744247,item,Saldus,22.493611111111,56.666666666667,city in Latvia
13,Q744268,item,Ladvenjak,15.6,45.41666667,human settlement
14,Q744308,item,Brora distillery,-3.868132,58.024908,"whisky distillery in Highland, Scotland, UK"
15,Q744309,item,Fort Liberia,2.3647,42.5899,fort
16,Q744330,item,canton of Joinville,5.138055555,48.4425,canton of France
17,Q744398,item,Torcé,-1.2658333333333,48.061666666667,"commune in Ille-et-Vilaine, France"
18,Q744401,item,Sântuhalm,22.952683,45.858271,"locality in Deva County, Romania"
19,Q744411,item,Țela,22.068547,45.987234,"village in Arad County, Romania"
20,Q744429,item,Gmina Osiecznica,15.419444444444,51.3275,rural gmina of Poland
21,Q744466,item,,21.693333333333,41.491944444444,village in Macedonia
22,Q744472,item,Dürrnbachhorn,12.608888888889,47.673888888889,mountain in the Chiemgau Alps at the border Salzburg / Bavaria
23,Q744552,item,Basilica of Sant'Apollinare in Classe,12.232365,44.380117,"Byzantine-style minor basilica in Ravenna, Italy"
24,Q744553,item,Churchill,-94.1692,58.7692,"town in Manitoba, Canada"
25,Q744580,item,Kangra Valley Railway,76.7894848,31.9891581,railway line
26,Q744605,item,Ashuapmushuan River,-72.333333333333,48.6175,"tributary of Lake Saint-Jean, Saguenay-Lac Saint-Jean, Quebec, Canada"
27,Q744611,item,Battle of Heraclea,16.669722,40.22,battle
28,Q744631,item,Assos,26.336667,39.490556,town in Turkey
29,Q744760,item,Grønsund,12.11222222,54.89408333,Strait in Denmark
30,Q744763,item,São Paulo metropolitan area,-46.635833,-23.547778,"mesoregion in São Paulo, Brazil"
31,Q744776,item,campo San Polo,12.3299,45.4375,"square in Venice, Italy"
32,Q744821,item,Lobethal,138.867,-34.9,town in South Australia
33,Q744876,item,Neda (Messenia),21.95,37.41666667,village in Greece
34,Q744896,item,Cambremer,0.047777777777778,49.151944444444,"commune in Calvados, France"
35,Q744948,item,New Rochelle,-73.781944444444,40.908611111111,"city in Westchester County, New York, United States"
36,Q744964,item,,19.4306,50.0017,"railway station in Zator, Poland"
37,Q745016,item,Kuala Lumpur Tower,101.70376,3.15286,tower in Kuala Lumpur
38,Q745085,item,Mrągowo,21.30507,53.86437,city and urban gmina of Poland
39,Q745097,item,Suchá nad Parnou,17.48972222,48.40972222,municipality of Slovakia
40,Q745104,item,La Roue/Het Rad metro station,4.294167,50.821667,"metro station in Brussels, Belgium"
41,Q745178,item,Unieście,16.0867,54.2678,village of Poland
42,Q745199,item,Vladimirskaya,30.347961111111,59.927538888889,"metro station in Saint Petersburg, Russia"
43,Q745225,item,canton of Saint-Laurent-de-la-Salanque,2.983333,42.766667,canton of France (until March 2015)
44,Q745270,item,Ipolytölgyes,18.783333,47.916667,village in Hungary
45,Q745282,item,Fuente la Reina,-0.6090426,40.0639196,municipality of Spain
46,Q745289,item,Saint-Germain-le-Gaillard,-1.7822222222222,49.486388888889,"commune in Manche, France"
47,Q745295,item,Mani Peninsula,22.4303,36.559,landscape in Greece
48,Q745302,item,Saga County,85.23302,29.3297,county
49,Q745308,item,Sedmihorky,15.196111111111,50.553888888889,village in Semily District of Liberec region
50,Q745358,item,Downtown Seattle,-122.33611111111,47.608055555556,central business district
51,Q745391,item,Assumption University,100.83769444,13.61205556,"university in Bangkok, Thailand"
52,Q745401,item,Pithora,82.52,21.27,human settlement
53,Q745412,item,Greeley,-91.341666666667,42.585,"human settlement in Delaware County, Iowa, United States of America"
54,Q745417,item,Les Chalesmes,6.0380555555556,46.689444444444,"commune in Jura, France"
55,Q745426,item,Marci,-167.0,22.6,lunar crater
56,Q745460,item,Cathedral of Our Lady of Strasbourg,7.7508333333333,48.581666666667,"cathedral located in Bas-Rhin, in France"
57,Q745477,item,"Koufonisi, Crete",26.139615,34.93898,small greek island
58,Q745534,item,Testa di Lepre,12.284725,41.962147222222,"frazione of Fiumicino, Lazio, Italy"
59,Q745535,item,"Rakitnica, Virje",16.911666666667,45.994444444444,
60,Q745557,item,Tilmanstone,1.295,51.215,village in United Kingdom
61,Q745575,item,Faxaflói,-23.0,64.4,a bay in southwestern Iceland
62,Q745594,item,Wilkes-Barre,-75.878055555556,41.244444444444,"county seat of Luzerne County, Pennsylvania, United States"
63,Q745613,item,Coptic Catholic Eparchy of Sohag,31.7,26.55,eparchy
64,Q745636,item,Trnje,16.2,45.59,"village in Zagreb County, Croatia"
65,Q745645,item,Munitibar-Arbatzegi Gerrikaitz,-2.59475080324,43.2564101,municipality of Spain
66,Q745686,item,Blanot,4.7347222222222,46.473333333333,"commune in Saône-et-Loire, France"
67,Q745771,item,Mont-ral,1.09792,41.28687,municipality of Spain
68,Q745822,item,Flynn,149.05,-35.2025,"suburb of Canberra, Australia"
69,Q745866,item,Dallas Museum of Art,-96.80163,32.78819,"art museum in Dallas, Texas"
70,Q745893,item,Sweetheart Abbey,-3.618462,54.979393,"category A listed building in Dumfries and Galloway, Scotland, UK"
71,Q745908,item,Sainte-Marie,0.62138888888889,42.972777777778,"commune in Hautes-Pyrénées, France"
72,Q745975,item,Chott el Hodna,4.76666667,35.44166667,lake
73,Q746031,item,Burton upon Stather,-0.68485,53.649411111111,"a village located in North Lincolnshire, United Kingdom"
74,Q746032,item,Lisbon Metro,-9.15,38.71666666666667,"rapid transit railway in Lisbon, Portugal"
75,Q746048,item,1980 African Cup of Nations,3.38333,6.45,football tournament
76,Q746051,item,Rika's Landing Roadhouse,-145.84,64.1552,"historic building in Big Delta, Alaska, USA"
77,Q746061,item,Alcoià,-0.47722222222222,38.701944444444,comarque of the Valencian Community
78,Q746187,item,Boquim,-37.620833333333,-11.146944444444,municipality of Brazil
79,Q746192,item,Ahetze,-1.5711111111111,43.405833333333,"commune in Pyrénées-Atlantiques, France"
80,Q746271,item,Szentgotthárd Abbey,16.27305556,46.95361111,abbey
81,Q746288,item,Crimée,2.37734,48.89082,Paris Métro station
82,Q746295,item,Cootamundra Shire,148.03333333333,-34.65,"former local government area of New South Wales, Australia"
83,Q746356,item,Hancağız Dam,37.888,36.9577,dam
84,Q746362,item,Astakos,21.083333333333,38.533333333333,town in Greece
85,Q746401,item,Bilsteinhöhle,8.32333,51.4261,cave
86,Q746407,item,Palić,19.758611111111,46.103055555556,town in northern Serbia
87,Q746490,item,Lovell Beach House,-117.918,33.6059,architectural structure
88,Q746545,item,Isola 2000,7.158333,44.186667,ski resort in the southern French Alps
89,Q746558,item,Emirate of Bukhara,64.428611111111,39.774722222222,former country lasting from 1785–1920
90,Q746559,item,Astana Arena,71.401667,51.108056,football stadium
91,Q746569,item,Lézardrieux,-3.1072222222222,48.785277777778,"commune in Côtes-d'Armor, France"
92,Q746578,item,Mashike,141.52527777778,43.856111111111,"town in Mashike district, Hokkaidō, Japan"
93,Q746621,item,Almașu Sec,22.863439,45.848283,"village in Hunedoara County, Romania"
94,Q746639,item,Savoy Hotel,-0.120215,51.509898,"historic luxury hotel in London, England"
95,Q746670,item,Mouila,11.055,-1.86667,capital of the Ngounié region of Gabon
96,Q746742,item,Manzaneda,-7.2333333333333,42.309444444444,"municipality of Galicia, Spain"
97,Q746785,item,Mandala Airlines Flight 091,98.66666667,3.58333333,aviation accident in Indonesia
98,Q746787,item,Ol Doinyo Lengai,35.913333333333,-2.7616666666667,mountain in Tanzania
99,Q746799,item,Tądów Dolny,18.6403,51.7689,village of Poland
100,Q746861,item,Babeldaob,134.56472222222,7.5302777777778,island
101,Q746892,item,Dahlgren,-77.0508,38.3361,"census-designated place in King George County, Virginia, United States"
102,Q746899,item,Engolasters,1.560467,42.51147,human settlement
103,Q746946,item,Coulounieix-Chamiers,0.69138888888889,45.186388888889,"commune in Dordogne, France"
104,Q746966,item,Rudno,18.746944444444,48.885,municipality of Slovakia
105,Q746998,item,Saint-Cyprien,1.3522222222222,45.250833333333,"commune in Corrèze, France"
106,Q747010,item,Chromeč,16.893730008362,49.933766536858,village in Šumperk District of Olomouc region
107,Q747035,item,Kostelany,17.382859452548,49.203083146035,village in Kroměříž District of Zlín region
108,Q747044,item,Gávavencsellő,21.595,48.160555555556,village in Hungary
109,Q747061,item,Brzezie-Huby,16.98861111,51.865,"village in Gmina Gostyń, within Gostyń County, Greater Poland Voivodeship, Poland"
110,Q747107,item,Hatzeva,35.2802,30.7677,human settlement in Israel
111,Q747171,item,Chereluș,21.705337,46.46521,"village in Arad County, Romania"
112,Q747182,item,Mount Ossa,146.03334444444,-41.871025,"highest mountain in Tasmania, Australia"
113,Q747228,item,Ožkabaliai,22.99305556,54.49694444,village in Lithuania
114,Q747240,item,Jeledinți,23.075139,45.8037,"village in Hunedoara County, Romania"
115,Q747250,item,Mălăiești,22.944834,45.486668,"village in Hunedoara County, Romania"
116,Q747269,item,Instituto de Investigaciones Estéticas,-99.1826,19.317,UNAM research center
117,Q747271,item,quai de la Tournelle,2.35374,48.8503,"thoroughfare in Paris, France"
118,Q747273,item,Oropesa,-5.1777777777778,39.919166666667,"municipality in Toledo, Spain"
119,Q747324,item,Reichenbach Priory,8.40139,48.5256,abbey
120,Q747360,item,Café Society,-74.0019,40.7328,former nightclub in New York City
121,Q747398,item,Chambérat,2.4130555555556,46.418888888889,"commune in Allier, France"
122,Q747426,item,Ikerasak,-51.302777777778,70.502777777778,"village in Qaasuitsup, Greenland"
123,Q747470,item,Dimitrovgrad,22.783333333333,43.016666666667,town and municipality in Serbia
124,Q747487,item,canton of Saint-Amans,3.436945,44.650805,canton of France (until March 2015)
125,Q747490,item,Saint-Pierre-des-Ormes,0.42138888888889,48.306388888889,"commune in Sarthe, France"
126,Q747566,item,Saint-Léger-de-Balson,-0.46583333333333,44.431944444444,"commune in Gironde, France"
127,Q747621,item,"Kozjak, Loznica",19.284166666667,44.587222222222,human settlement
128,Q747632,item,Pecna,16.8,52.183333333333,village of Poland
129,Q747665,item,Panc-Săliște,22.522429,45.865878,"village in Hunedoara County, Romania"
130,Q747673,item,Saulnières,-1.5875,47.915833333333,"commune in Ille-et-Vilaine, France"
131,Q747680,item,Sâi,23.120391,47.683087,"village in Satu Mare County, Romania"
132,Q747747,item,Gare de Lépanges-sur-Vologne,6.672294,48.172728,railway station
133,Q747772,item,Vincent Square,-0.1351,51.4932,"grass-covered square in London, United Kingdom"
134,Q747777,item,Neilston,-4.4234,55.7847,"village in East Renfrewshire, Scotland, UK"
135,Q747778,item,Atherstone,-1.5462,52.5787,"town in Warwickshire, England, UK"
136,Q747792,item,Saint-Léger-sur-Bresle,1.7197222222222,49.868888888889,"commune in Somme, France"
137,Q747807,item,Horsforth,-1.6428805555556,53.834130555556,"suburb and civil parish within the City of Leeds in West Yorkshire, England"
138,Q747815,item,Łubniany,18.0,50.78333,village of Poland
139,Q747819,item,Nueva Carrara,-55.259722222222,-34.718333333333,"City of Uruguay, located in the department of Maldonado."
140,Q747832,item,Catolândia,-44.860833333333,-12.317777777778,"municipality of Bahia State, Brazil"
141,Q747835,item,La Danse de la fontaine emergente,2.37055556,48.83916667,"fountain in Paris, France"
142,Q747844,item,"Nikolaj, Copenhagen Contemporary Art Center",12.58138889,55.67861111,church in Copenhagen
143,Q747896,item,Delikipos,33.36179144,34.91772695,"community in Larnaca District, Republic of Cyprus"
144,Q747899,item,Misérieux,4.8108333333333,45.973333333333,"commune in Ain, France"
145,Q747900,item,,12.1275,47.9828,administrative community
146,Q747926,item,Sabinov District,21.097777777778,49.102777777778,district of Slovakia
147,Q748025,item,Montardon,-0.34055555555556,43.375833333333,"commune in Pyrénées-Atlantiques, France"
148,Q748037,item,Janikowo,18.1,52.75,city of Poland
149,Q748060,item,Masnières,3.2097222222222,50.115277777778,"commune in Nord, France"
150,Q748064,item,Maaninka,27.3,63.158333333333,"former municipality of Finland, now part of Kuopio"
151,Q748068,item,Hârșova,27.951944444444,44.683333333333,"town in Constanța County, Romania"
152,Q748094,item,Universitätsmedizin Mainz,8.2579,49.9926,hospital
153,Q748096,item,Kątne railway station,20.7631,52.6086,"railway station in Kątne, Poland"
154,Q748172,item,Valleroy-le-Sec,6.01,48.186944444444,"commune in Vosges, France"
155,Q748191,item,Gretna,-90.0542,29.9164,"suburb city of New Orleans, located in Jefferson Parish, Louisiana"
156,Q748213,item,Montagny-sur-Grosne,4.55,46.355833333333,"former commune in Saône-et-Loire, France"
157,Q748237,item,Čmanjke,20.4489,42.9972,human settlement
158,Q748270,item,Fimmvörðuháls,-19.44725,63.63135,ridge between glaciers in Iceland
159,Q748292,item,Naranjal District,-55.18333333,-25.96666667,district of Paraguay
160,Q748304,item,Pleše,14.821383188974,49.19559476394,village in Jindřichův Hradec District of South Bohemian region
161,Q748363,item,Balaklava,33.597952,44.505344,former city on the Crimean Peninsula
162,Q748374,item,Rabe,20.266666666667,46.1,"village in Novi Kneževac municipality, Serbia"
163,Q748422,item,Bissy-la-Mâconnaise,4.7886111111111,46.481111111111,"commune in Saône-et-Loire, France"
164,Q748446,item,Duisburg-Asterlagen,6.69222,51.4261,human settlement in Germany
165,Q748463,item,Lanty,3.8411111111111,46.810277777778,"commune in Nièvre, France"
166,Q748508,item,Botfei,22.06394,46.547252,"village in Arad County, Romania"
167,Q748561,item,Asterode,9.38389,50.8547,human settlement in Germany
168,Q748604,item,Bald Mountain,-114.409,43.655,"mountain in Blaine County, Idaho, United States"
169,Q748622,item,Tacopaya,-66.533333333333,-17.816666666667,human settlement
170,Q748666,item,"Konstantynów, Sochaczew County",20.1175,52.205277777778,village of Poland
171,Q748691,item,Saint-Jean-Lespinasse,1.8608333333333,44.862777777778,"commune in Lot, France"
172,Q748730,item,Rachecourt-Suzémont,4.9647222222222,48.457222222222,"commune in Haute-Marne, France"
173,Q748776,item,"Feres, Magnesia",22.73333333,39.36666667,place in Greece
174,Q748887,item,Livet,-0.46138888888889,48.108055555556,"commune in Mayenne, France"
175,Q748903,item,St Canice's Cathedral,-7.2571444444444,52.656777777778,cathedral
176,Q748931,item,Ilhéu das Cabras,6.715,0.408,island
177,Q748936,item,Esternay,3.5594444444444,48.731944444444,"commune in Marne, France"
178,Q748965,item,Varna Municipality,27.918,43.2077,municipality of Bulgaria
179,Q748985,item,Sapucaia,-42.913888888889,-21.995,"municipality in Rio de Janeiro, Brazil"
180,Q749022,item,"La Carlota, Spain",-4.9296481,37.6749292,municipality of Spain
181,Q749062,item,Durnholz Valley,11.438888888889,46.738888888889,"valley in South Tyrol, Italy"
182,Q749068,item,Faye-la-Vineuse,0.34027777777778,46.956944444444,"commune in Indre-et-Loire, France"
183,Q749099,item,Caliente,-114.51416666667,37.615277777778,"city in Lincoln County, Nevada, United States"
184,Q749111,item,Astfeld,10.3767,51.9269,village in Germany
185,Q749233,item,Lazovsky District,134.0,43.25,municipal district in Russia
186,Q749396,item,Castanheira,-58.602777777778,-11.132777777778,Brazilian municipality of the state of Mato Grosso
187,Q749432,item,Astigi,-5.08149,37.54092,Roman Catholic titular see
188,Q749453,item,Japanese aircraft carrier Sōryū,-179.21666666667,30.633333333333,aircraft carrier built for the Imperial Japanese Navy
189,Q749489,item,Strychava,22.491388888889,48.961944444444,"village in Velykyi Bereznyi Raion, Zakarpattia Oblast, Ukraine"
190,Q749539,item,Manavi,45.46277777777778,41.718333333333334,human settlement
191,Q749543,item,Villafontana,11.08492,45.29299,frazione of Italy
192,Q749555,item,Wólka-Lizigódź,19.5346,52.2507,village of Poland
193,Q749638,item,La Pommeraye,-0.42138888888889,48.908333333333,"commune in Calvados, France"
194,Q749663,item,Lepaja,21.6639,43.3025,human settlement
195,Q749675,item,Montsauche-les-Settons,4.0258333333333,47.215,"commune in Nièvre, France"
196,Q749693,item,Vibraye,0.73583333333333,48.058888888889,"commune in Sarthe, France"
197,Q749696,item,Albalat de la Ribera,-0.38666666666667,39.201388888889,municipality of Spain
198,Q749732,item,Garu-Tempane District,-0.18333333333333,10.85,former district of Ghana
199,Q749803,item,Cavillargues,4.5219444444444,44.114722222222,"commune in Gard, France"
200,Q749825,item,Sun Peaks Resort,-119.893,50.8939,Ski Resort
201,Q749846,item,Symmons Plains Raceway,147.25277777778,-41.659444444444,race track
202,Q749863,item,Marnehuizen,6.2625,53.386667,hamlet in the netherlands
203,Q749885,item,Mine,131.20583333333,34.166666666667,"city in Yamaguchi Prefecture, Japan"
204,Q749886,item,Sukhyi,22.79,48.949166666667,"village in Velykyi Bereznyi Raion, Zakarpattia Oblast, Ukraine"
205,Q749896,item,Guangsheng Temple,111.80638889,36.30166667,"building in Shanxi, China"
206,Q749906,item,Demnitz,14.409611111111111,52.147888888888886,river in Germany
207,Q749912,item,Fuligny,4.7066666666667,48.331944444444,"commune in Aube, France"
208,Q749928,item,Echo of Moscow,37.596111111111114,55.75222222222222,Russian radio station
209,Q749991,item,Slatina,22.04944444,42.87888889,"village in the municipality of Leskovac, Serbia."
210,Q750008,item,La Roque-Baignard,0.099166666666667,49.178888888889,"commune in Calvados, France"
211,Q750113,item,Astor,-81.534444444444,29.163888888889,"census designated place in Lake County, Florida, United States"
212,Q750182,item,Secretariat of Welfare,-99.15405556,19.43438889,social affairs ministry
213,Q750336,item,Zhukovo,22.646666666667,48.496388888889,"village in Mukacheve Raion, Zakarpattia Oblast, Ukraine"
214,Q750350,item,Astrakhan Kremlin,48.03194444,46.35,
215,Q750362,item,Myrcha,22.461388888889,48.826666666667,"village in Dubrynychi-Maly Bereznyi Amalgamated Hromada, Uzhhorod Raion, Zakarpattia Oblast, Ukraine"
216,Q750403,item,Biblioteca Nacional de España,-3.690215,40.423822,library in Spain
217,Q750413,item,Stropkov,21.651388888889,49.205,town in Slovakia
218,Q750444,item,Stockholm Palace,18.071666666667,59.326666666667,the official residence and major royal palace of the Swedish monarch
219,Q750456,item,Lipcha,23.381944444444,48.262777777778,"village in Khust Raion, Zakarpattia Oblast, Ukraine"
220,Q750459,item,Koshel'ovo,23.331944444444,48.237777777778,"village in Khust Raion, Zakarpattia Oblast, Ukraine"
221,Q750487,item,Tur'ia Poliana,22.805555555556,48.699166666667,"village in Perechyn Raion, Zakarpattia Oblast, Ukraine"
222,Q750571,item,Whistler Olympic Park,-123.119,50.1353,architectural structure
223,Q750623,item,Crater of Diamonds State Park,-93.6703,34.0331,Public diamond mine
224,Q750676,item,Milly-sur-Thérain,1.9952777777778,49.5025,"commune in Oise, France"
225,Q750706,item,Doudeville,0.78444444444444,49.721111111111,"commune in Seine-Maritime, France"
226,Q750720,item,Stoiceni,23.880799,47.511213,"village in Maramureș County, Romania"
227,Q750769,item,Fântânele,23.826,47.411351,"village in Maramureș County, Romania"
228,Q750772,item,Ferwerderadiel,5.8408,53.3294,"former municipality in Friesland, the Netherlands"
229,Q750778,item,"Santa Maria del Carmine, Milan",9.18611,45.4706,church
230,Q750805,item,Brieuil-sur-Chizé,-0.31944444444444,46.124166666667,"commune in Deux-Sèvres, France"
231,Q750822,item,Gorb,23.72496,48.44346,"village in Mizhhirya Raion, Zakarpattia Oblast, Ukraine"
232,Q750856,item,Pushkino,22.86,48.17,village
233,Q750876,item,Veliki Lazi,22.390277777778,48.559722222222,settlement in Ukraine
234,Q750882,item,Stripa,22.399444444444,48.620833333333,"village in Uzhhorod Raion, Zakarpattia Oblast, Ukraine"
235,Q750890,item,Ouézy,-0.10333333333333,49.083333333333,"commune in Calvados, France"
236,Q750894,item,Topchyno,23.833333333333332,48.03333333333333,"village in Tiachiv Raion, Zakarpattia Oblast, Ukraine"
237,Q750960,item,Betsihaka,49.233,-13.15,commune in Madagascar
238,Q750961,item,Egyházasgerge,19.64795,48.1785,municipality of Hungary
239,Q751002,item,Battle of Kuhmo,29.32638889,64.84805556,battle
240,Q751069,item,Fontenay-de-Bossery,3.4561111111111,48.453333333333,"commune in Aube, France"
241,Q751086,item,Brownsea Island,-1.9722222222222,50.691666666667,"island in Poole Harbour, Dorset, England"
242,Q751105,item,Palazzo Valentini,12.48388889,41.89666667,palazzo
243,Q751146,item,Franciscan Missions in the Sierra Gorda,-99.463888888889,21.203888888889,UNESCO world heritage in Mexico
244,Q751159,item,"Sadków, Oleśnica County",17.3147,51.3048,village of Poland
245,Q751165,item,Kraśniów,20.7333,50.2667,village of Poland
246,Q751172,item,Andy Warhol Museum,-80.0024,40.4484,"art museum in Pittsburgh, Pennsylvania"
247,Q751175,item,Daikanransha,139.7822902,35.6263915,
248,Q751198,item,Chertezh,22.4875,48.558333333333,"village in Uzhhorod Raion, Zakarpattia Oblast, Ukraine"
249,Q751233,item,Ashton-under-Lyne,-2.1,53.48,"Parliamentary constituency in the United Kingdom, 1832 onwards"
250,Q751245,item,Pré Saint-Gervais,2.39889,48.88028,Paris Métro station
251,Q751349,item,Császló,22.733333333333,47.916666666667,village in Hungary
252,Q751387,item,Sanaag Region,48.185833333333,10.779166666667,province of Somaliland
253,Q751466,item,Uxbridge and South Ruislip,-0.44,51.54,"Parliamentary constituency in the United Kingdom, 2010 onwards"
254,Q751478,item,Fort Hancock,-105.86,31.2917,"census designated place in Hudspeth County, Texas, United States"
255,Q751483,item,La Vibora,-97.071944444444,32.755,roller coster
256,Q751516,item,Krużlowa Niżna,20.871944444444,49.651111111111,village of Poland
257,Q751526,item,Helsinki German Library,24.94916667,60.16583333,"library in Helsinki, Finland"
258,Q751560,item,Astrolabe Bay,145.91222222,-5.34333333,bay in Papua New Guinea
259,Q751593,item,"Horovce, Michalovce District",21.77138889,48.70638889,municipality of Slovakia
260,Q751594,item,"Preseka, Gornji Mihaljevec",16.277,46.421,human settlement
261,Q751596,item,Dragoslavec Breg,16.34166667,46.44166667,human settlement
262,Q751629,item,East Londonderry,-6.953,54.946,"Parliamentary constituency in the United Kingdom, 1983 onwards"
263,Q751635,item,Suuremõisa Manor,22.9447,58.8703,"historical manorial estate in Hiiu County, Estonia"
264,Q751639,item,Auffargis,1.8872222222222,48.700277777778,"commune in Yvelines, France"
265,Q751646,item,Kopashnovo,23.482222222222,48.215555555556,"village in Khust Raion, Zakarpattia Oblast, Ukraine"
266,Q751658,item,Villecresnes,2.5341666666667,48.721388888889,"commune in Val-de-Marne, France"
267,Q751681,item,Canal de Roanne à Digoin,4.08416667,46.04027778,canal
268,Q751711,item,Champigné,-0.57222222222222,47.664166666667,"former commune in Maine-et-Loire, France"
269,Q751715,item,South Down,-5.93900013,54.2344017,"Parliamentary constituency in the United Kingdom, 1950 onwards"
270,Q751813,item,St Levan,-5.662,50.041,"a village located in Cornwall, United Kingdom"
271,Q751844,item,Icloda,21.388555,45.64313,"village in Timiș County, Romania"
272,Q751848,item,Sculia,21.432254,45.444293,"locality in Timiș County, Romania"
273,Q751860,item,ASTRON,6.395722,52.813158,Netherlands Institute for Radio Astronomy
274,Q751864,item,Svay Rieng Province,105.81666666667,11.066666666667,Cambodian province
275,Q751874,item,Storm Prediction Center,-97.440277777778,35.181388888889,sub-agency of the United States National Weather Service
276,Q751887,item,Aveyron,3.0427,44.2738,"river in France, tributary of the Tarn"
277,Q751907,item,Heian-kyō,135.76666667,35.0,"former name of Kyoto, capital of Japan 794-1868"
278,Q751933,item,Serruelles,2.3711111111111,46.8825,"commune in Cher, France"
279,Q751963,item,PUB,18.061111,59.334444,department store
280,Q752007,item,Izbuc,22.46803,46.440252,"village in Bihor County, Romania"
281,Q752037,item,Căpruța,22.02522,46.088608,"village in Arad County, Romania"
282,Q752052,item,Hășdat,22.922536,45.735187,"village in Hunedoara County, Romania"
283,Q752093,item,Lamorlaye,2.4408333333333,49.155,"commune in Oise, France"
284,Q752107,item,Hainburg an der Donau,16.941944444444,48.147777777778,"town in Bruck/Leitha District, Lower Austria, Austria"
285,Q752117,item,Ria-Sirach,2.3997222222222,42.608333333333,"commune in Pyrénées-Orientales, France"
286,Q752128,item,Shamakhy Astrophysical Observatory,48.596666666666664,40.78194444444444,"astrophysical facility in Şamaxı, Azerbaijan"
287,Q752150,item,Paray-Vieille-Poste,2.3627777777778,48.708055555556,"commune in Essonne, France"
288,Q752209,item,Astrup,10.0939,57.4792,"town east of Hjørring, Denmark"
289,Q752368,item,Astún,-0.50611111,42.80972222,Spanish ski resort
290,Q752386,item,Warlaing,3.3252777777778,50.410277777778,"commune in Nord, France"
291,Q752397,item,Asuka,135.82055555556,34.471111111111,"village in Takaichi district, Nara Prefecture, Japan"
292,Q752403,item,Asuksak Island,-176.098,51.9297,island in the United States of America
293,Q752420,item,Asunafo South District,-2.45,6.6833333333333,district of Ghana
294,Q752447,item,Selci Križovljanski,16.078,46.349,human settlement
295,Q752464,item,Saint-Nicolas-la-Chapelle,6.5016666666667,45.808888888889,"commune in Savoie, France"
296,Q752540,item,Saugues,3.5475,44.96,"commune in Haute-Loire, France"
297,Q752547,item,Saint-Cyprien,3.0063888888889,42.618055555556,"commune in Pyrénées-Orientales, France"
298,Q752580,item,Strmec Remetinečki,16.32903982,46.19822234,human settlement
299,Q752597,item,Šijanec,16.25277778,46.29027778,village in Croatia
300,Q752600,item,Radešić,16.3,46.099,human settlement
301,Q752618,item,Cvetlin,15.959,46.285,human settlement
302,Q752627,item,,14.68845,46.7888,building
303,Q752632,item,Coonamble Shire,148.4,-30.95,"local government area in New South Wales, Australia"
304,Q752635,item,,16.59,46.282,human settlement
305,Q752643,item,Donja Višnjica,16.007,46.293,human settlement
306,Q752669,item,National Air and Space Museum,-77.01972222222223,38.88805555555555,"aerospace museum in Washington, D.C."
307,Q752676,item,Hardap Region,17.95,-24.616666666667,Region of Namibia
308,Q752696,item,Roman Theatre of Trieste,13.77167,45.64917,"ancient Roman theatre in Trieste, Italy"
309,Q752702,item,La Pierre,5.9483333333333,45.293611111111,"commune in Isère, France"
310,Q752709,item,,16.445,46.202,human settlement
311,Q752742,item,Kapela Podravska,16.691,46.277,human settlement
312,Q752761,item,Priles,16.601,46.275,human settlement
313,Q752809,item,Madaraševec,16.547,46.283,human settlement
314,Q752826,item,Šćepanje,16.252,46.125,human settlement
315,Q752894,item,,16.181,46.288,human settlement
316,Q752911,item,Hrastovec Toplički,16.406,46.197,human settlement
317,Q752914,item,Nazelles-Négron,0.95333333333333,47.432222222222,"commune in Indre-et-Loire, France"
318,Q752935,item,Vulišinec,16.034,46.219,human settlement
319,Q752944,item,Tiocu de Sus,23.648497,47.076176,"village in Cluj County, Romania"
320,Q752994,item,Krafla,-16.783333333333,65.733333333333,mountain and volcano in Iceland
321,Q753037,item,Chiquimula Department,-89.543611111111,14.799444444444,department of Guatemala
322,Q753075,item,Sants-Montjuïc,2.1406,41.3372,district of Barcelona
323,Q753090,item,Saint-Chély-d'Aubrac,2.9211111111111,44.590555555556,"commune in Aveyron, France"
324,Q753114,item,Lachlan Shire,147.15,-33.05,"local government area in New South Wales, Australia"
325,Q753128,item,Cobar Shire,145.83444444444444,-31.498333333333335,"local government area in New South Wales, Australia"
326,Q753190,item,Trémonzey,6.2366666666667,47.973333333333,"commune in Vosges, France"
327,Q753192,item,"Atahualpa, Montevideo",-56.19180556,-34.86466667,human settlement
328,Q753194,item,EML Kalev,24.735455,59.452806,ship
329,Q753195,item,Planica,13.722222222222,46.476944444444,Alpine valley
330,Q753225,item,Klenovets',22.763333333333,48.512777777778,"village in Mukacheve Raion, Zakarpattia Oblast, Ukraine"
331,Q753236,item,Ataköy,35.11451111,36.75526944,human settlement
332,Q753252,item,Ledinec,16.27963624,46.23387828,human settlement
333,Q753266,item,,16.179166666667,46.240277777778,
334,Q753273,item,La Baffe,6.5719444444444,48.160277777778,"commune in Vosges, France"
335,Q753314,item,Clear Spring,-77.9308,39.6561,"town in Washington County, Maryland, United States"
336,Q753347,item,Atambua,124.8925,-9.1061111111111,"town in East Nusa Tenggara, Indonesia"
337,Q753389,item,Repaš,17.06666667,46.15,human settlement
338,Q753403,item,Sânnicolau de Munte,22.136706,47.303621,"locality in Bihor County, Romania"
339,Q753410,item,Chesinț,21.576302,46.053899,"village in Arad County, Romania"
340,Q753416,item,Glen Innes Severn,151.75,-29.716666666667,"local government area in New South Wales, Australia"
341,Q753455,item,Kyogle Council,153.012,-28.625,"local government area in New South Wales, Australia"
342,Q753465,item,Atapupu,124.85,-9.0,"town in East Nusa Tenggara, Indonesia"
343,Q753515,item,"Royal field with the monument to Přemysl, the Ploughman",13.9632,50.61464167,national monument of the Czech Republic
344,Q753531,item,Banjul International Airport,-16.652205555556,13.337961111111,airport in Gambia
345,Q753544,item,Riviera Beach,-76.5181,39.1619,"census designated place and neighborhood of Pasadena, Maryland, United States"
346,Q753567,item,Deale,-76.5389,38.7917,"census designated place in Anne Arundel County, Maryland, United States"
347,Q753584,item,Odenton,-76.6997,39.0714,"census-designated place in Maryland, United States"
348,Q753592,item,Frenchtown-Rumbly,-75.86278,38.08222,"census designated place in Somerset County, Maryland, United States"
349,Q753612,item,Prisaca,22.226477,46.710692,"village in Bihor County, Romania"
350,Q753628,item,Donji Dubovec,16.54,46.01,human settlement
351,Q753629,item,Springdale,-76.8458,38.9372,"census designated place in Prince George's County, Maryland, United States"
352,Q753645,item,Millington,-75.8386,39.2594,town in the U.S. state of Maryland
353,Q753662,item,KFVS TV Mast,-89.503888888889,37.429444444444,architectural structure
354,Q753697,item,Bennsville,-77.006388888889,38.623333333333,"census designated place in Maryland, United States"
355,Q753722,item,Betterton,-76.063056,39.367222,"town in Kent County, Maryland, United States"
356,Q753731,item,Masuda,131.84283333333335,34.67475,"city in Shimane Prefecture, Japan"
357,Q753774,item,Barton,-79.0169,39.5317,"town in Allegany County, Maryland, United States"
358,Q753777,item,Sângeorzu Nou,24.358574,46.961547,"village in Bistrița-Năsăud County, Romania"
359,Q753794,item,Atauro Island,125.58,-8.24,island in East Timor
360,Q753812,item,Qana,35.299167,33.209167,village in South Lebanon
361,Q753815,item,Trappe,-76.0581,38.66,"town in Talbot County, Maryland, United States"
362,Q753821,item,Ivanivka,25.274166666667,51.090277777778,"village in Rozhysche Raion, Volyn Oblast, Ukraine"
363,Q753824,item,Illyricum,17.329379,43.804412,Roman province from 27 BC to 69/79 AD
364,Q753825,item,Utrera,-5.7817506,37.1824646,municipality of Spain
365,Q753826,item,Svaliavka,22.829722222222,48.668888888889,"village in Perechyn Raion, Zakarpattia Oblast, Ukraine"
366,Q753852,item,USS Theodore Roosevelt,-76.3284,36.9589,Nimitz-class aircraft carrier in the United States Navy
367,Q753895,item,Tajín Veracruz,-97.378241666667,20.448058333333,archaeological site in Mexico
368,Q753897,item,Atbarah River,37.085277777778,12.421305555556,river in Africa
369,Q753915,item,Newington,-72.73,41.687222222222,"town in Connecticut, United States"
370,Q753926,item,Ballenger Creek,-77.4328,39.3817,"town in Frederick County, Maryland, United States"
371,Q753937,item,Canaan,-73.3083,41.9617,"town in Connecticut, United States"
372,Q753959,item,Port Tobacco Village,-77.0195611,38.5104802,"town in Maryland, United States"
373,Q753970,item,Gornji Macelj,15.856,46.263,municipality in Croatia
374,Q753974,item,Polje Krapinsko,15.882,46.14,"village in Krapina-Zagorje County, Croatia"
375,Q753978,item,Donji Macelj,15.845,46.223,human settlement
376,Q753983,item,Grantsville,-79.1558,39.6969,"town in the Garrett County, Maryland, United States"
377,Q753994,item,Cirkvena,16.66666667,45.93333333,human settlement
378,Q753996,item,Strahinje,15.86943678,46.17674523,"village in Krapina-Zagorje County, Croatia"
379,Q754002,item,Atebubu District,-0.98333333333333,7.75,district of Ghana
380,Q754049,item,Atelier,10.68769,53.86511,cinema in Lübeck
381,Q754085,item,Winsted,-73.06,41.921111111111,"city in Connecticut, United States"
382,Q754144,item,Collinsville,-72.9221441,41.8189895,location in Connecticut
383,Q754147,item,Sibișel,23.256758,45.749765,"village in Hunedoara County, Romania"
384,Q754156,item,Chewsville,-77.635,39.6431,"census designated place in Washington County, Maryland, United States"
385,Q754163,item,Deer Park,-79.3256,39.4233,"town in Garrett County, Maryland, United States"
386,Q754167,item,Temple Hills,-76.9464,38.8106,"census designated place in Maryland, United States"
387,Q754191,item,Barclay,-75.8647,39.1447,"town in Queen Anne's County, Maryland, United States"
388,Q754207,item,Bregi Radobojski,15.909,46.136,human settlement
389,Q754210,item,Vidovec Petrovski,15.859,46.131,"village in Krapina-Zagorje County, Croatia"
390,Q754220,item,Vama Marga,22.515564,45.522517,"village in Caraș-Severin County, Romania"
391,Q754221,item,Racșa-Vii,23.303887,47.792325,"village in Satu Mare County, Romania"
392,Q754248,item,Cotiglet,22.201517,46.889632,"village in Bihor County, Romania"
393,Q754253,item,Pășunea Mare,23.232291,47.882747,"village in Satu Mare County, Romania"
394,Q754291,item,,15.602,46.142,human settlement
395,Q754303,item,Stara Ves Košnička,15.623,46.151,human settlement
396,Q754320,item,Hartly,-75.7128,39.1686,"town in Kent County, Delaware, United States"
397,Q754378,item,Merneptah Stele,32.61,25.72,A memorial plaque by Merneptah who ruled egypt between 1213 and 1203 BC
398,Q754420,item,Odessa,-75.6583,39.4556,"town in New Castle County, Delaware, USA"
399,Q754435,item,Woodlawn,-76.745956,39.301516,"census-designated place in Baltimore County, Maryland, United States"
400,Q754443,item,Cheverly,-76.9135,38.9245,"town in Maryland, United States"
401,Q754503,item,Ghighișeni,22.431483,46.551415,"village in Bihor County, Romania"
402,Q754512,item,Princess Anne,-75.695,38.209722222222,"town in Maryland, United States"
403,Q754557,item,,15.691,46.141,human settlement
404,Q754562,item,Benkovo,15.804,46.134,human settlement
405,Q754580,item,Atewa Range,-0.6,6.1666666666667,mountain range in Ghana
406,Q754615,item,Arden on the Severn,-76.5903,39.0711,"census designated place in Anne Arundel County, Maryland, United States"
407,Q754718,item,Durance,6.7214,44.8936,major river in south-eastern France
408,Q754720,item,Suitland-Silver Hill,-76.925912,38.8468521,"former census-designated place in Prince George’s County, Maryland, United States"
409,Q754757,item,Friendsville,-79.40532,39.66369,"town in Garrett County, Maryland, United States"
410,Q754774,item,Weatogue,-72.823611111111,41.844722222222,village in Connecticut
411,Q754785,item,White Cliffs of Dover,1.3571111111111112,51.13472222222222,England Cliff shore
412,Q754790,item,Senec,17.399722222222,48.218888888889,town in Slovakia
413,Q754795,item,Vir,15.083333333333,44.3,island of Croatia
414,Q754801,item,Montgomery Village,-77.1928,39.1764,"unincorporated community in Montgomery County, Maryland, United States"
415,Q754812,item,Redland,-77.14403,39.14468,"census-designated place in Montgomery County, Maryland, United States"
416,Q754828,item,Sărand,22.120949,46.998285,"village in Bihor County, Romania"
417,Q754864,item,Wauregan,-71.910556,41.743889,"human settlement in Connecticut, United States of America"
418,Q754867,item,Unst,-0.88333333333333,60.75,"northernmost Shetland Island, Scotland, UK"
419,Q754874,item,Athanasiuskirche,9.75366,52.3577,church
420,Q754906,item,Church Hill,-75.985,39.1444,"town in Queen Anne's County, Maryland, United States"
421,Q754908,item,Pušća,15.636,46.117,human settlement
422,Q754946,item,Burzuc,22.170956,47.15552,"village in Bihor County, Romania"
423,Q754950,item,Cărănzel,22.04065,46.830622,"village in Bihor County, Romania"
424,Q754956,item,Tomnatic,22.441566666666667,46.94041361111111,"village in Bihor County, Romania"
425,Q754961,item,Dobricionești,22.477963,46.994923,"village in Bihor County, Romania"
426,Q754971,item,Chijic,22.156353,46.994942,"village in Bihor County, Romania"
427,Q754975,item,Suiug,22.431944444444,47.32,"village in Bihor County, Romania"
428,Q755001,item,Paris Basin,2.0,48.5,territory
429,Q755002,item,Ak-Suu District,78.99135,42.19937,district of Kyrgyzstan
430,Q755035,item,Crestur,22.239412,47.349426,"village in Bihor County, Romania"
431,Q755114,item,Sârbești,22.486493,46.501573,"village in Bihor County, Romania"
432,Q755120,item,Sohodol,22.428816,46.78101,"village in Bihor County, Romania"
433,Q755122,item,Nimăiești,22.391533,46.682944,"village in Bihor County, Romania"
434,Q755151,item,Torrington,-73.011944444444,41.835,"city in Litchfield County, Connecticut, USA"
435,Q755165,item,North Athens Regional Unit,23.8,38.05,regional unit of Greece
436,Q755175,item,Cornișești,22.235243,46.828644,"village in Bihor County, Romania"
437,Q755190,item,Hăucești,22.203208,47.228127,"village in Bihor County, Romania"
438,Q755204,item,Surduc,22.201604,46.976105,"village in Bihor County, Romania"
439,Q755209,item,Felcheriu,22.07906,46.99618,"village in Bihor County, Romania"
440,Q755219,item,Surducel,22.333686,46.92754,"village in Bihor County, Romania"
441,Q755222,item,Dumbrăvița,22.152321,46.793991,"village in Bihor County, Romania"
442,Q755228,item,,128.8566659,36.0175607,railway station
443,Q755238,item,,15.9,46.058,human settlement
444,Q755246,item,Stevensville,-76.3189,38.9811,"census designated place in Maryland, United States"
445,Q755250,item,East Windsor,-72.557777777778,41.916666666667,"town of Connecticut, United States"
446,Q755271,item,Hamden,-72.921666666667,41.397777777778,"town in Connecticut, US"
447,Q755272,item,"Očura, Novi Golubovec",15.984,46.186,human settlement
448,Q755284,item,Sušobreg Bistrički,16.166,46.023,human settlement
449,Q755318,item,Șopteriu,24.347604,46.797802,"village in Bistrița-Năsăud County, Romania"
450,Q755320,item,Suplacu de Tinca,22.111471,46.706813,"village in Bihor County, Romania"
451,Q755342,item,Athens Conservatoire,23.7434206,37.9734574,music educational institution in Greece
452,Q755346,item,Mierag,22.366104,46.604332,"village in Bihor County, Romania"
453,Q755365,item,Gurani,22.545495,46.595182,"village in Bihor County, Romania"
454,Q755396,item,,16.224,46.101,human settlement
455,Q755397,item,Bethlehem,-73.208611111111,41.639166666667,"town in Litchfield County, Connecticut, United States"
456,Q755414,item,,16.2,46.055,human settlement
457,Q755417,item,Oakville,-73.0858821,41.5922614,"census designated place in Litchfield County, Connecticut, United States"
458,Q755422,item,,16.123,46.146,human settlement
459,Q755433,item,Cornițel,22.643439,46.984257,"village in Bihor County, Romania"
460,Q755470,item,,26.06666667,37.56666667,mountain in Greece
461,Q755491,item,Chișirid,21.888164,46.96894,"village in Bihor County, Romania"
462,Q755503,item,Homorog,21.746728,46.831698,"village in Bihor County, Romania"
463,Q755509,item,Atherton Tableland,145.53333333,-17.16666667,"fertile plateau which is part of the Great Dividing Range in Queensland, Australia"
464,Q755535,item,,16.161,46.05,human settlement
465,Q755541,item,Cufoaia,23.803382,47.479244,"village in Maramureș County, Romania"
466,Q755558,item,Domahovo,15.828,45.994,human settlement
467,Q755559,item,Hagerstown,-77.72,39.642777777778,"city in Maryland, United States"
468,Q755574,item,Jessup,-76.775,39.1383,"locality in Howard and Anne Arundel counties, Maryland, United States"
469,Q755576,item,Libotin,23.968326,47.505412,"village in Maramureș County, Romania"
470,Q755578,item,Bârgău,23.399712,47.683438,"village in Maramureș County, Romania"
471,Q755580,item,Strâmbu-Băiuț,23.982574,47.598395,"village in Maramureș County, Romania"
472,Q755588,item,Secaci,22.037839,46.572937,"village in Arad County, Romania"
473,Q755594,item,Caporal Alexa,21.58316,46.337932,"locality in Arad County, Romania"
474,Q755602,item,Pasadena,-76.5519,39.1128,census-designated place in the U.S. state of Maryland
475,Q755619,item,Viola,-75.5717,39.0422,"town in Kent County, Delaware, United States"
476,Q755627,item,,15.738,46.041,human settlement
477,Q755698,item,Svitavy,16.468338539525,49.755965917692,municipality in the Czech Republic
478,Q755700,item,Târnăvița,22.651176,46.255465,"village in Arad County, Romania"
479,Q755705,item,Ledine Klanječke,15.732,46.016,human settlement
480,Q755725,item,Groșeni,22.1183,46.497624,"village in Arad County, Romania"
481,Q755734,item,Athribis,31.183333,30.466667,city in Lower Egypt
482,Q755739,item,Benbecula,-7.31964,57.4458,"island of the Outer Hebrides, Scotland, UK"
483,Q755770,item,Vasile Goldiș,21.934344,46.527825,"village in Arad County, Romania"
484,Q755773,item,Harrington,-75.575,38.925,"city in Delaware, United States"
485,Q755775,item,Aldești,22.0402,46.391859,"village in Arad County, Romania"
486,Q755792,item,Șeușa,23.627837,46.059879,"village in Alba County, Romania"
487,Q755806,item,Atiak,32.125,3.265,human settlement
488,Q755810,item,Cuvin,21.595006,46.166392,"village in Arad County, Romania"
489,Q755836,item,Apatiu,24.186179,46.999678,"village in Bistrița-Năsăud County, Romania"
490,Q755847,item,"Gredice, Klanjec",15.734,46.034,human settlement
491,Q755861,item,Brezovica Petrovska,15.828,46.184,human settlement
492,Q755865,item,,15.806,46.172,human settlement
493,Q755896,item,Monoroștia,22.013778,46.10476,"village in Arad County, Romania"
494,Q755900,item,Căpud,23.725509,46.205648,"village in Alba County, Romania"
495,Q755920,item,Satu Nou,24.627086,47.110126,"village in Bistrița-Năsăud County, Romania"
496,Q755932,item,Burkittsville,-77.6267,39.3917,"town in Frederick County, Maryland, United States"
497,Q755936,item,Delaware City,-75.591666666667,39.575,"city in New Castle County, Delaware, United States"
498,Q755946,item,Bodrogu Nou,21.197971,46.128116,"village in Arad County, Romania"
499,Q755947,item,Carney,-76.5242,39.3967,"census designated place in Baltimore County, Maryland, United States"
500,Q755958,item,Claymont,-75.4647,39.7994,census-designated place in Delaware
501,Q755978,item,Bolshoy Taytym,73.744591,57.776968,"river in Omsk Oblast, Russia"
502,Q756116,item,Ulyuk,52.68333333333333,55.916666666666664,"former river in Tatarstan, Russia"
503,Q756177,item,Kiik,84.71176,55.24451,"river in Kemerovo and Novosibirsk Oblasts, Russia"
504,Q756225,item,Kaylinka,74.556546,56.165661,"river in Omsk Oblast, Russia"
505,Q756251,item,,69.7437,57.6214,river in Russia
506,Q756253,item,Atlantic Southeast Airlines Flight 529,-85.16121,33.57973,1995 aviation accident
507,Q756266,item,Cherta,86.32840101,54.34953201,"river in Kemerovo Oblast, Russia"
508,Q756267,item,Atlantic,-95.010833333333,41.401388888889,city in Iowa
509,Q756333,item,Maryan,53.8991,54.2841,"river in Bashkiria, Russia"
510,Q756359,item,Donja Topličica,16.19,45.9,human settlement
511,Q756376,item,Zharnyakovka,70.395059,59.524867,river in Russia
512,Q756432,item,Tarambal,71.315478,59.226765,"river in Tyumen Oblast, Russia"
513,Q756468,item,Boonsboro,-77.6539,39.5083,"town in Washington County, Maryland, United States"
514,Q756470,item,Polonje Tomaševečko,16.3,45.966,human settlement
515,Q756472,item,Arzhava,38.860476,52.160891,"river in Lipetsk Oblast, Russia"
516,Q756484,item,Šulinec,16.25,45.966,human settlement
517,Q756487,item,Atlanticum,8.58717,53.5219,"former museum in Bremerhaven, Germany"
518,Q756490,item,,69.640028,58.68778,river in Russia
519,Q756511,item,Vostochnaya Dem'yanka,74.8791,58.1996,river in Russia
520,Q756539,item,,68.7785,60.5932,river in Russia
521,Q756548,item,Yemancha,38.783772,51.414869,river in Russia
522,Q756567,item,Arelga,54.1646,54.2054,river in Russia
523,Q756582,item,,68.6843,58.7214,river in Russia
524,Q756586,item,Tamsurka,74.68495,57.90978,"river in Omsk Oblast, Russia"
525,Q756590,item,Comănești,26.4361623,46.4131757,"town in Bacău County, Romania"
526,Q756592,item,Khatnys'yega,70.171917,59.501635,river in Russia
527,Q756611,item,,65.8369,56.4989,river in Russia
528,Q756613,item,Menyega,71.847094,59.468756,"river in Tyumen Oblast, Russia"
529,Q756620,item,,74.357898,58.267468,river in Russia
530,Q756638,item,,72.267351,58.750347,river in Russia
531,Q756642,item,,69.943,59.9197,river in Russia
532,Q756650,item,Bugryshka,52.84,56.496666666667,"river in Udmurtia, Russia"
533,Q756657,item,Kal'chan,70.870834,59.233936,river in Russia
534,Q756707,item,Malyye Izyly,84.308787,54.766689,river in Russia
535,Q756740,item,Kachkar,70.089313,58.988072,"river in Tyumen Oblast, Russia"
536,Q756761,item,Utis,72.070594,58.429357,river in Russia
537,Q756764,item,Salair,86.54583,54.3859,"river in Kemerovo Oblast, Russia"
538,Q756808,item,Brusyanka,61.253009,56.569125,"river in Sverdlovsk Oblast, Russia"
539,Q756811,item,Pismyanka,54.162777777778,54.176666666667,"river in the Republic of Bashkortostan, Russia"
540,Q756816,item,Via Aurelia,4.776315,43.714715,Roman road in Italy
541,Q756824,item,Temple of Hephaestus,23.721391666667,37.975616666667,Doric temple in Athens
542,Q756831,item,Chukady,54.087222222222,54.345,river in Russia
543,Q756834,item,Chalpaymas,53.07566666666666,54.81322222222222,river in Russia
544,Q756850,item,Sukhoy Kerchik,40.49638888888889,47.65222222222222,"river in Rostov Oblast, Russia"
545,Q756860,item,,70.371557,58.619906,river in Russia
546,Q756862,item,Okney,75.502622,57.386347,"river in Omsk Oblast, Russia"
547,Q756872,item,Klyuchevaya,85.15951,55.248,"river in Kemerovo Oblast, Russia"
548,Q756978,item,Fiscut,21.395822,46.028153,"village in Arad County, Romania"
549,Q756988,item,Scherbakovka,61.247222222222,56.206666666667,"river in Chelyabinsk and Sverdlovsk Oblasts, Russia"
550,Q757007,item,Wessex Sound Studios,-0.0913889,51.5547,"music recording studio located in Highbury New Park, London, England"
551,Q757023,item,Tynay,70.182833,58.41916,"river in Tyumen Oblast, Russia"
552,Q757049,item,Grobiņa,21.1675,56.5375,city in Latvia
553,Q757051,item,Khudyashovka,86.84257,54.47824,"river in Kemerovo Oblast, Russia"
554,Q757080,item,Astanajapura,108.61755572915551,-6.802313416504509,"district in Cirebon Regency, Jawa Barat Province, Indonesia"
555,Q757113,item,Ciwaringin,108.38104182253977,-6.691420459702221,"district in Cirebon Regency, Jawa Barat Province, Indonesia"
556,Q757117,item,Talinovka,76.4371,56.6154,"river in Novosibirsk Oblast, Russia"
557,Q757126,item,Yuzya,65.1979,56.2781,"river in Tyumen Oblast, Russia"
558,Q757133,item,Chachapoyas,-77.85,-6.2166666666667,"capital city of Amazonas, Peru"
559,Q757161,item,Koim,74.14207,58.675217,"river in Tyumen Oblast, Russia"
560,Q757215,item,Layma,65.8095,58.0338,river in Russia
561,Q757218,item,,69.299081,58.850484,river in Russia
562,Q757219,item,Greged,108.559588201939,-6.821451678400887,"district in Cirebon Regency, Jawa Barat Province, Indonesia"
563,Q757264,item,Kapetakan,108.50176462823653,-6.556097433096951,"district in Cirebon Regency, Jawa Barat Province, Indonesia"
564,Q757372,item,Taygyt-Ega,70.840607,59.5102,"river in Tyumen Oblast, Russia"
565,Q757374,item,Klangenan,108.45527777778,-6.6744444444444,"district in Cirebon Regency, Jawa Barat Province, Indonesia"
566,Q757401,item,Atlixco,-98.43613,18.90815,locality of Mexico
567,Q757421,item,,73.876788,58.381818,river in Russia
568,Q757423,item,Taydin,69.45,58.1,"river in Tyumen Oblast, Russia"
569,Q757424,item,,66.9726,58.7174,river in Russia
570,Q757436,item,Karamalinka,52.942777777778,55.102777777778,"river in Tatarstan, Russia"
571,Q757439,item,,70.6691,59.2215,river in Russia
572,Q757455,item,Yuna,73.644816,57.723484,"river in Omsk Oblast, Russia"
573,Q757481,item,Sargatka,73.45,55.6,"river in Omsk Oblast, Russia"
574,Q757487,item,Kamenka,38.703,52.5506,"river in Lipetsk Oblast, Russia"
575,Q757497,item,Kurekmas,53.801666666667,54.139722222222,river in Russia
576,Q757502,item,Kuyelga,53.135555555556,54.06,"river in Orenburg Oblast, Russia"
577,Q757530,item,Atna,10.815854,61.739382,river in Norway
578,Q757535,item,Ato Boldon Stadium,-61.41722222,10.42472222,stadium
579,Q757844,item,Belonia,91.45833333333333,23.25,human settlement
580,Q757902,item,Attantané,7.52388889,14.04444444,rural commune in Niger
581,Q757912,item,Attavyros,27.8394,36.1966,mountain
582,Q757921,item,Attel,12.1781,48.0222,river in Germany
583,Q757944,item,Attendorn-Elsper Doppelmulde,7.9879,51.1438,
584,Q757946,item,,11.1898,48.7825,human settlement in Germany
585,Q757968,item,California State Route 84,-121.526299,38.582962,"state highway in California, United States"
586,Q757979,item,attempted assassination of Ronald Reagan,-77.0454,38.9161,1981 shooting of US President Ronald Reagan and murder of then White House Press Secretary James Brady
587,Q758077,item,California State Route 118,-118.901553,34.278992,highway in California
588,Q758182,item,California State Route 185,-122.140718,37.713838,highway in California
589,Q758187,item,California State Route 245,-119.11716,36.319862,highway in California
590,Q758188,item,California State Route 246,-120.138423,34.596052,highway in California
591,Q758266,item,,125.235,-8.87111111,
592,Q758321,item,Atzendorf,11.9553,51.3381,human settlement
593,Q758326,item,Atzenhausen,9.81416,51.419,human settlement in Germany
594,Q758331,item,Atzenhofen,10.3761,49.2581,human settlement in Germany
595,Q758345,item,Atzmännig,8.9968,47.2852,ski resort
596,Q758350,item,Atães,-8.2494444444444,41.456666666667,"locality and former civil parish in Guimarães, Portugal"
597,Q758387,item,Au bei Turnau,15.3142,47.5717,locality in Bruck-Mürzzuschlag District
598,Q758393,item,Aua Viva Disentis,8.85611,46.7042,church
599,Q758394,item,Aua Island,143.06666666667,-1.45,island of the Bismarck Archipelago
600,Q758398,item,Auasende,17.2827778,-22.6102778,mountain
601,Q758414,item,Tauscherbach,16.4247,47.7086,river in Austria
602,Q758447,item,,15.2036,48.5332,
603,Q758484,item,Aubinger Heizkraftwerk,11.4249723632665,48.162620099117,"cultural heritage monument D-1-62-000-8068 (0) in München, Bavaria"
604,Q758544,item,Auburn,151.0344444,-33.848333333333336,"suburb of Sydney, New South Wales, Australia"
605,Q758604,item,Auchentoshan distillery,-4.439,55.922,"whisky distillery in West Dunbartonshire, Scotland, UK"
606,Q758618,item,Auchroisk distillery,-3.11553,57.548,"whisky distillery in Moray, Scotland, UK"
607,Q758619,item,Auchsesheim,10.7816,48.6901,human settlement in Germany
608,Q758625,item,Auchtertool,-3.25,56.1,"village in Fife, Scotland, UK"
609,Q758659,item,Auckland University of Technology,174.7667,-36.8533,university at Auckland
610,Q758882,item,Saint-Quentin-en-Tourmont,1.5894444444444,50.285,"commune in Somme, France"
611,Q759070,item,Aue,8.29861,51.0492,human settlement
612,Q759095,item,Auels-Berg,10.0681,50.9115,mountain
613,Q759137,item,Belthara Road,83.84592222,26.11969444,human settlement
614,Q759141,item,Bharuch INA,72.9667,21.7,human settlement
615,Q759184,item,Auer Bach,7.1725,51.2619,river
616,Q759189,item,Auer Wasserburg,10.1283,51.18,
617,Q759199,item,Winkelsett,8.5305555555556,52.872777777778,municipality of Germany
618,Q759252,item,Auerhammer,12.694444444444,50.582222222222,place in Germany
619,Q759259,item,Auermühle,7.08574,50.7598,"architectural structure in Bonn, Germany"
620,Q759268,item,Auernheim,10.295,48.7292,"quarter of Nattheim, Baden-Württemberg, Germany"
621,Q759285,item,Auerspergstraße,16.3553,48.208,street in Vienna
622,Q759297,item,Auesee,6.5813,51.6732,"lake in Wesel, North Rhine-Westphalia, Germany"
623,Q759299,item,Auetal Bridge,9.98583,51.8375,
624,Q759399,item,,7.9941,49.5781,human settlement
625,Q759410,item,Basman district,35.95,31.983333333333,District
626,Q759526,item,West Bohemian Spa Triangle,12.356,50.1215,
627,Q759539,item,Beypore,75.82,11.18,"village in Kozhikkode District, Kerala, India"
628,Q759597,item,Auferstehung Christi (Greste),8.67947,51.9846,
629,Q759607,item,,8.0638,51.394,church
630,Q759623,item,Resurrection church Kleinmachnow,13.2298,52.413,"church building in Brandenburg state ,Germany"
631,Q759637,item,,8.46673,51.8869,church
632,Q759730,item,Al Muwaqqar,36.094166666667,31.815555555556,human settlement
633,Q759750,item,Umm al Kundum,35.883333333333,31.85,human settlement
634,Q759759,item,Aufkirch,10.7547,47.91,human settlement
635,Q759820,item,Holzingen,10.9233,49.0216,human settlement in Germany
636,Q760133,item,Indiana State Road 5,-85.628929,41.101604,highway in Indiana
637,Q760173,item,,-0.458913888889,39.5886305556,building
638,Q760257,item,Bayana,77.28,26.9,town
639,Q760347,item,Behea,84.45935,25.5607,human settlement
640,Q760413,item,Augerville-la-Rivière,2.4363888888889,48.251944444444,"commune in Loiret, France"
641,Q760461,item,,10.9169,48.3667,human settlement in Germany
642,Q760498,item,,10.8653,48.3583,human settlement in Germany
643,Q760517,item,,10.8902,48.33,
644,Q760575,item,,10.9046,48.3653,voluntary association
645,Q760819,item,Mount Popomanaseu,160.06194444444,-9.7036111111111,mountain
646,Q761227,item,Garphyttan National Park,14.892840140138631,59.280229102316085,national park
647,Q761399,item,Klepaczew,23.05,52.3,village of Poland
648,Q761521,item,Mischii,23.85,44.38333333,"village in Dolj County, Romania"
649,Q761534,item,University of Georgia,-83.3745,33.9558,"public university located in Athens, Georgia, United States"
650,Q761535,item,Pyramid Lake,-119.56666666667,40.033333333333,"lake in Nevada, United States"
651,Q761565,item,Tramser See,11.619030555556,53.814488888889,"lake in Jesendorf, Mecklenburg-Vorpommern, Germany"
652,Q761574,item,Nitra District,18.085833333333,48.31,district of Slovakia
653,Q761586,item,Bozkov,15.337199502148,50.640123551878,village in Semily District of Liberec region
654,Q761644,item,Tejstymy,20.8833,53.95,village of Poland
655,Q761672,item,Victot-Pontfol,-0.016666666666667,49.163055555556,"commune in Calvados, France"
656,Q761701,item,Saint-Denis-en-Val,1.96,47.877222222222,"commune in Loiret, France"
657,Q761773,item,Cruet,6.0913888888889,45.528055555556,"commune in Savoie, France"
658,Q761818,item,Monastery of San Isidro de Dueñas,-4.51661,41.89918,"building in Palencia Province, Spain"
659,Q761839,item,Theon Senior,15.4,-0.8,lunar impact crater
660,Q761879,item,San Vicente de la Sonsierra,-2.7591666666667,42.562222222222,municipality of Spain
661,Q761963,item,Point Lisas,-61.47444444,10.39111111,human settlement
662,Q761970,item,Forest of Tronçais,2.72143,46.64125,forest in France
663,Q762031,item,Dussac,1.0816666666667,45.395555555556,"commune in Dordogne, France"
664,Q762205,item,Ablancourt,4.5219444444444,48.813611111111,"commune in Marne, France"
665,Q762242,item,Trinity Cathedral,30.305833,59.916111,"cathedral in Saint Petersburg, Russia"
666,Q762358,item,Médan,1.9961111111111,48.953333333333,"commune in Yvelines, France"
667,Q762458,item,Battle of Ruspina,10.816666666667,35.766666666667,Battle between the Republican forces of the Optimates and forces loyal to Julius Caesar (46 BC)
668,Q762467,item,Kartoffeldämpfanlage Stöckse,9.33061,52.6386,
669,Q762509,item,Makit County,77.65002,38.90279,county
670,Q762562,item,Cadeilhan,0.77138888888889,43.828888888889,"commune in Gers, France"
671,Q762724,item,Hongjiang,109.95,27.116667,"county-level city in Hunan Province, China"
672,Q762752,item,Fair Isle,-1.63,59.53,"island at the south of the Shetland Islands, Scotland, UK"
673,Q762806,item,,16.3844444444444,47.3747222222222,human settlement in Austria
674,Q762873,item,Lommoye,1.5138888888889,48.993888888889,"commune in Yvelines, France"
675,Q762878,item,Volnay,0.4675,47.932222222222,"commune in Sarthe, France"
676,Q762968,item,Ruyuan Yao Autonomous County,113.27488,24.77793,autonomous county
677,Q763001,item,Marquise,1.7033333333333,50.814722222222,"commune in Pas-de-Calais, France"
678,Q763006,item,Villaverde de Íscar,-4.5266666666667,41.306388888889,municipality of Spain
679,Q763012,item,Sheraton,-1.317,54.709,"village in County Durham, United Kingdom"
680,Q763074,item,Torquay railway station,-3.5431,50.461261111111,"railway station in Devon, England"
681,Q763079,item,Poronin,20.002921,49.337875,village of Poland
682,Q763080,item,Greenville,-84.6281,40.1025,"city in Darke County, Ohio, United States"
683,Q763147,item,Dolní Stakory,14.972566001994,50.437356642771,village in Mladá Boleslav District of Central Bohemian region
684,Q763332,item,Gargano,15.75,41.733,cape
685,Q763420,item,Jalovec,13.679998,46.421554,mountain
686,Q763437,item,Cieplewo,18.65028,54.23417,village of Poland
687,Q763599,item,Temple of Ptah,32.659742,25.719531,building in Africa
688,Q763604,item,August River,141.15061,-4.1004,river in Papua New Guinea
689,Q763616,item,Hisar division,75.7167,29.1667,"division of Haryana, India"
690,Q763650,item,Saint-Symphorien,-0.115,48.072222222222,"commune in Sarthe, France"
691,Q763662,item,Coracora,-73.78041944,-15.01699444,city
692,Q763699,item,Brebrovac,15.55,45.683,human settlement
693,Q763761,item,Galižana,13.869,44.933,human settlement
694,Q763881,item,Bolton,-0.824831,53.961,"village in the East Riding of Yorkshire, England"
695,Q763889,item,Snæfjallaströnd,-22.66933333,66.12836111,beach in Iceland
696,Q763945,item,Josa,-0.7668018,40.9556067,"municipality in Teruel, Spain"
697,Q764016,item,Northfields tube station,-0.314256,51.499386,London Underground station
698,Q764127,item,Mołowiste,23.22,53.92888888888889,village of Poland
699,Q764143,item,Bryn Station,10.81894444,59.908325,"railway station in Oslo, Norway"
700,Q764162,item,Noyelles-en-Chaussée,1.9802777777778,50.208055555556,"commune in Somme, France"
701,Q764231,item,Chiro,40.866666666667,9.0833333333333,town in Northeastern Ethiopia
702,Q764369,item,Heverlee,4.69,50.86,"section of Leuven, Belgium"
703,Q764385,item,Omusati Region,14.8,-18.4,region of Namibia
704,Q764396,item,Monument to the Fallen Shipyard Workers of 1970,18.6492,54.3605,"monument (Gdańsk, Poland)"
705,Q764425,item,Oadby and Wigston,-1.095,52.592,"non-metropolitan district in Leicestershire, United Kingdom"
706,Q764435,item,Menzel Temime,10.983333333333,36.783333333333,Tunisian town
707,Q764449,item,Toaca,24.965504,46.798609,"village in Mureș County, Romania"
708,Q764465,item,Montparnasse – Bienvenüe,2.3226350506488,48.843042850256,Paris Métro station
709,Q764511,item,Marvdasht County,52.666666666667,30.083333333333,"county in Fars Province, Iran"
710,Q764534,item,Świące,19.85,52.1167,village of Poland
711,Q764675,item,Mudéjar architecture of Aragon,1.107194,40.343861,architectural style
712,Q764685,item,Budapest Southern Railway Terminal,19.025,47.499444444444,station building
713,Q764688,item,La Bauche,5.765,45.4825,"commune in Savoie, France"
714,Q764863,item,Lake Genval,4.519444,50.728889,lake
715,Q764887,item,Bizarro,-74.432339,40.138228,Steel floorless roller coaster
716,Q764888,item,Mabla Mountains,43.043,11.945,mountain
717,Q764900,item,Huize County,103.29733,26.41622,county
718,Q764946,item,"Rakovec, Zagreb County",16.3225,45.9303,municipality of Croatia
719,Q765055,item,Tierpark Zittau,14.8325,50.9014,zoo
720,Q765072,item,Marions,-0.090555555555556,44.383888888889,"commune in Gironde, France"
721,Q765123,item,Yüreğir,35.337222222222,36.985555555556,"district of Adana Province, Turkey"
722,Q765158,item,Zastavna Raion,25.844444444444,48.5225,raion of Ukraine
723,Q765175,item,Battle of Yenidje,22.38,40.79,battle
724,Q765179,item,Brax,0.55166666666667,44.203055555556,"commune in Lot-et-Garonne, France"
725,Q765202,item,Billième,5.8094444444444,45.719166666667,"commune in Savoie, France"
726,Q765216,item,Union Station,-85.768889,38.246111,"railroad station in Louisville, Kentucky, United States"
727,Q765311,item,Chanchamayo Province,-75.329036111111,-11.054386111111,"province of Junín, Peru"
728,Q765335,item,Červeňany,19.388889,48.377778,municipality of Slovakia
729,Q765349,item,Sérempuy,0.82416666666667,43.760833333333,"commune in Gers, France"
730,Q765472,item,Montemorelos,-99.826669444444,25.187219444444,"town in Montemorelos Muncipality, Nuevo León, Mexico"
731,Q765478,item,Târnava River,23.69888889,46.15472222,river in Romania
732,Q765490,item,Augusta,-112.39416666667,47.490833333333,"unincorporated community and census-designated place in Lewis and Clark County, Montana, United States"
733,Q765512,item,Qamsar,51.415833333333,33.743888888889,"city in Isfahan Province, Iran"
734,Q765545,item,Nyíribrony,21.966666666667,48.016666666667,village in Hungary
735,Q765553,item,Sabzevar,57.666666666667,36.216666666667,"city in Razavi Khorasan Province, Iran"
736,Q765603,item,Sun Dome Fukui,136.186,35.9308,
737,Q765618,item,Tsakhats Kar Monastery,45.35694444,39.895,monastery
738,Q765638,item,San Marco de Sierra,-88.25,14.11667,human settlement
739,Q765645,item,Varessia,5.54,46.559722222222,"former commune in Jura, France"
740,Q765659,item,Roniz,53.768611111111,29.191944444444,"city in Fars Province, Iran"
741,Q765752,item,,-82.02222222,33.5,
742,Q765759,item,Zarrin Shahr,51.376388888889,32.389444444444,"city in Isfahan Province, Iran"
743,Q765843,item,Masseube,0.57888888888889,43.429722222222,"commune in Gers, France"
744,Q765845,item,Mesopotamia,41.0,37.0,Province of the Roman Empire
745,Q765906,item,Bilwinowo,23.03333333,54.16666667,village of Poland
746,Q765929,item,Monte Consolino,16.4619199,38.4793795,mountain
747,Q765941,item,Cambois,-1.521,55.145,"village in Northumberland, United Kingdom"
748,Q765945,item,La Bérarde,6.29147,44.933,village in France
749,Q766014,item,Tribeca,-74.0078,40.7183,neighborhood in Manhattan
750,Q766055,item,Auguste-Viktoria-Schule (Flensburg),9.43091,54.783,school
751,Q766073,item,Diqing Tibetan Autonomous Prefecture,99.709,27.82611,"autonomous prefecture in Yunnan, China"
752,Q766083,item,Courcy,-1.3930555555556,49.041388888889,"commune in Manche, France"
753,Q766136,item,Battle of Harlaw,-2.4119444444444,57.308055555556,Clan battle
754,Q766159,item,Cessens,5.8819444444444,45.799444444444,"former commune in Savoie, France"
755,Q766197,item,Shire of Waroona,115.922,-32.874,local government area in Peel region of Western Australia
756,Q766223,item,Vergaio,11.054592,43.878219,frazione of Italy
757,Q766231,item,Biele Karpaty Protected Landscape Area,17.9425,48.9525,protected landscape area of Slovakia
758,Q766317,item,Azovsky Nemetsky National District,73.02694444,54.70277778,municipal district in Russia
759,Q766446,item,Zgornji Janževski Vrh,15.283611,46.556389,human settlement
760,Q766472,item,Pierry,3.9372222222222,49.018888888889,"commune in Marne, France"
761,Q766484,item,Libštát,15.416026191401,50.55945468099,village in Semily District of Liberec region
762,Q766580,item,Adon,2.7958333333333,47.763055555556,"commune in Loiret, France"
763,Q766583,item,Fertőrákos,16.65,47.716666666667,village in Hungary
764,Q766617,item,Takab,47.113055555556,36.400833333333,"city in West Azerbaijan Province, Iran"
765,Q766684,item,Tour de la Banque Nationale,-73.5638,45.5019,"office building complex in Montreal, Quebec, Canada"
766,Q766816,item,Gardeja train station,18.9328,53.5914,"railway station in Gardeja, Poland"
767,Q766819,item,Obiszów,16.106166666667,51.580833333333,village of Poland
768,Q766896,item,Gaya,3.4466666666667,11.887777777778,urban commune in Niger
769,Q766900,item,Fairview,-95.7275,39.84,city in Kansas
770,Q767005,item,Taouzient,6.808333333333334,35.51111111111111,municipality of Algeria
771,Q767049,item,Black Country,-2.0333333333333,52.533333333333,area of the West Midlands in England
772,Q767089,item,Salamis,33.9,35.183333333333,historical state on Cyprus and archaeological site
773,Q767128,item,Dasht-e Lut,59.24111111111111,30.26388888888889,desert in Iran
774,Q767164,item,Sèvres - Cité de la céramique,2.22306,48.8286,museum in France
775,Q767173,item,"Świerczyny, Łódź Voivodeship",19.6589,50.9875,village of Poland
776,Q767186,item,Bondues,3.0933333333333,50.701666666667,"commune in Nord, France"
777,Q767223,item,Cronk ny Merriu,-4.57166667,54.10222222,promontory fort in the Isle of Man
778,Q767304,item,Cape Borda,136.59264,-35.7523,South Australia
779,Q767307,item,Vero,8.9325,42.063055555556,"commune in Corse-du-Sud, France"
780,Q767333,item,"Franciszków, Gmina Chynów",21.035,51.861666666667,village of Poland
781,Q767336,item,Volkssternwarte Würzburg,9.95839,49.7748,observatory
782,Q767353,item,Galdo,15.112222222222,40.626944444444,frazione of Italy
783,Q767381,item,La Rouquette,1.9744444444444,44.302222222222,"commune in Aveyron, France"
784,Q767473,item,Augusteum,8.21659,53.1362,art museum in Oldenburg
785,Q767491,item,Libkovice,13.6822219,50.5794439,village in Most District of Ústí nad Labem region
786,Q767497,item,Roman Catholic Diocese of Sunyani,-1.935775,7.5837,diocese of the Catholic Church
787,Q767504,item,Willie Clancy Summer School,-9.4,52.85,
788,Q767510,item,battle of Nancy,6.18444,48.6933,battle
789,Q767517,item,Wambrook,-3.0031,50.8626,"village and civil parish in Somerset, United Kingdom"
790,Q767520,item,Battle of Upperville,-77.8343,38.9851,American Civil War battle in the Gettysburg Campaign
791,Q767530,item,Luha,17.73,49.54611111,river in the Czech Republic
792,Q767565,item,Martindale Hall,138.7294,-33.9378,"Mansion in Mintaro, South Australia"
793,Q767578,item,Villatorres,-3.6944444444444,37.927777777778,municipality of Spain
794,Q767605,item,Battle of Argentovaria,7.35556,48.0817,
795,Q767772,item,Savignac-de-Duras,0.18666666666667,44.700833333333,"commune in Lot-et-Garonne, France"
796,Q767797,item,Labéjan,0.5,43.538333333333,"commune in Gers, France"
797,Q767844,item,Siege of Constantinople,28.9769,41.0167,1203 siege
798,Q767846,item,Aubry-en-Exmes,0.067777777777778,48.7925,"former commune in Orne, France"
799,Q767927,item,Santa Maria della Piazza,13.51027778,43.62055556,church
800,Q767944,item,Kietlanka,22.166666666667,52.75,village of Poland
801,Q768083,item,Mutsuzawa,140.31930555555556,35.36102777777778,"town in Chōsei district, Chiba prefecture, Japan"
802,Q768086,item,Lambayeque,-79.9,-6.7,"capital city of Lambayeque, Lambayeque, Peru"
803,Q768102,item,Campanian Archipelago,14.0955,40.6671,island group
804,Q768125,item,Piaski-Drużków,20.68333333,49.81666667,village of Poland
805,Q768202,item,,21.4947,52.6825,"railway station in Dalekie, Poland"
806,Q768238,item,Bergicourt,2.0238888888889,49.747222222222,"commune in Somme, France"
807,Q768299,item,De Castellane,3.969361,49.042636,factory
808,Q768314,item,"Ponta do Sol, Cape Verde",-25.091452777778,17.201755555556,town
809,Q768332,item,Sindhudurg district,73.690833333333,16.108888888889,"district in Maharashtra , India"
810,Q768392,item,St. Mariä Himmelfahrt,7.95343,49.8498,
811,Q768409,item,Dombai-Ulgen,41.725833333333334,43.24388888888889,mountain
812,Q768437,item,Babis Mta,42.514861111111,43.194583333333,mountain
813,Q768452,item,Turkołówka,23.8817,50.8869,village of Poland
814,Q768482,item,Augustinerkirche Zürich,8.53972,47.3719,
815,Q768500,item,Wentworth Park,151.193333,-33.8775,Australian park
816,Q768513,item,Kirche,10.0450777777778,49.9178722222222,"cultural heritage monument D-6-79-143-25 (0) in Hausen bei Würzburg, Bavaria"
817,Q768515,item,Thebaid,32.954304,23.936209,administrative region in ancient egypt
818,Q768524,item,,10.4299,48.5718,human settlement
819,Q768547,item,River Till,-2.145,55.454,"river in Northumberland, United Kingdom"
820,Q768556,item,,11.1494,51.7915,timber framed house
821,Q768557,item,,11.1493,51.7915,timber framed house
822,Q768563,item,,11.1498,51.7915,timber framed house
823,Q768566,item,Andrilovec,16.29166667,45.80833333,human settlement
824,Q768592,item,,11.152,51.7912,timber framed house
825,Q768594,item,,11.1519,51.7912,timber framed house
826,Q768629,item,,11.1528,51.7908,
827,Q768639,item,Haraba,29.08333333,47.9,"village in Transnistria, Moldova"
828,Q768645,item,,11.1488,51.7915,timber framed house
829,Q768655,item,,11.1503,51.7912,timber framed house
830,Q768712,item,,9.30848,48.7433,"building in Esslingen am Neckar, Stuttgart Government Region, Bade-Württemberg, Germany"
831,Q768758,item,Saint-Utin,4.5033333333333,48.550555555556,"commune in Marne, France"
832,Q768759,item,Sixt-Fer-à-Cheval,6.7755555555556,46.055277777778,"commune in Haute-Savoie, France"
833,Q768770,item,Montanuy,0.69583333333333,42.466666666667,municipality of Spain
834,Q768783,item,Paulinet,2.4297222222222,43.848611111111,"commune in Tarn, France"
835,Q768793,item,,-1.2269444444444,46.774444444444,battle
836,Q768916,item,Majipanari,124.146838,24.463303,island
837,Q768927,item,Bressolles,3.3166666666667,46.530833333333,"commune in Allier, France"
838,Q768990,item,Sunda Municipality,-6.9333333333333,62.15,municipality of the Faroe Islands
839,Q769114,item,Damxung County,91.10151,30.4785,county
840,Q769133,item,G'uzor Stadium,66.259139,38.618139,stadium
841,Q769148,item,Dim Cave,32.109397222222,36.539811111111,cave
842,Q769194,item,Kołaków,21.21666667,52.46666667,village of Poland
843,Q769196,item,Goudelancourt-lès-Berrieux,3.8491666666667,49.496666666667,"commune in Aisne, France"
844,Q769214,item,Landscheid,6.13333333,49.91666667,"village in Tandel municipality, Luxembourg"
845,Q769230,item,Mirów Nowy,21.0667,51.2,village of Poland
846,Q769251,item,Wólka Sulejowska,21.5333,52.45,village of Poland
847,Q769276,item,Domalain,-1.2416666666667,47.996111111111,"commune in Ille-et-Vilaine, France"
848,Q769361,item,"Mokra, Gmina Miedźno",18.91667,50.96667,"village in powiat kłobucki, Silesian voivodeship, Poland"
849,Q769478,item,Martinus Nijhoffbrug,5.26,51.81861,
850,Q769501,item,Horstsee,9.4616666666667,53.594166666667,"lake in Stade, Lower Saxony, Germany"
851,Q769537,item,Okhangaron,69.633888888889,40.913888888889,human settlement
852,Q769539,item,Escalante River,-110.87222222222,37.289444444444,"river in Garfield and Kane counties in Utah, United States"
853,Q769609,item,Sant'Antonio delle Monache a Port'Alba,14.252277,40.850415,
854,Q769622,item,Le Mesnil-Adelée,-1.0758333333333,48.700555555556,"commune in Manche, France"
855,Q769631,item,Drohiczyn,22.65,52.4,city of Poland
856,Q769650,item,Zaborowie,20.95,51.3,village of Poland
857,Q769655,item,Ynys Llanddwyn,-4.4125,53.1375,"tidal island in Anglesey, Wales"
858,Q769669,item,Broniów,20.7553,51.2136,village of Poland
859,Q769709,item,Kifisia,23.81666667,38.08333333,"suburb of Athens, Greece"
860,Q769754,item,Onnion,6.4788888888889,46.171388888889,"commune in Haute-Savoie, France"
861,Q769762,item,canton of Saintes-Ouest,-0.68327293,45.72359721,canton of France (until March 2015)
862,Q769855,item,Wuchang,127.5,44.833333333333,county-level city
863,Q769881,item,Csehi,16.945169444444,47.033711111111,village in Hungary
864,Q769912,item,Gradefes,-5.2272222222222,42.624722222222,municipality of Spain
865,Q769937,item,Gherghița,26.267293,44.800357,"commune in Prahova County, Romania"
866,Q769939,item,San Gaspar Ixchil,-91.71666667,15.38333333,"municipality of Huehuetenango Department, Guatemala"
867,Q769973,item,Käina,22.776666666667,58.827222222222,"township in Hiiumaa Rural Municipality, Hiiu County, Estonia"
868,Q770004,item,Angyal-forrási Cave,18.33111388888889,47.65012222222222,cave in Tata
869,Q770038,item,Pitkyarantsky District,31.48333333,61.56666667,"municipal district in Karelia, Russia"
870,Q770054,item,Trinay,1.9536111111111,48.085555555556,"commune in Loiret, France"
871,Q770079,item,,18.714833,47.778278,bridge
872,Q770098,item,"Lutheran Church, Angyalföld",19.064772,47.521653,"church in Budapest, Hungary"
873,Q770114,item,Hrdibořice,17.220443081161,49.478487609757,village in Prostějov District of Olomouc region
874,Q770150,item,La Monte,-93.4239,38.7717,"city in Pettis County, Missouri, United States"
875,Q770176,item,Wudinna District Council,135.46,-33.047,local government area in South Australia
876,Q770207,item,Toges,4.7772222222222,49.425555555556,"commune in Ardennes, France"
877,Q770227,item,Curcio,9.3998152,46.1340177,frazione of Italy
878,Q770262,item,South Plainfield,-74.415,40.575277777778,"borough in Middlesex County, New Jersey"
879,Q770268,item,Wormingford,0.8194,51.9581,"village and civil parish in Essex, United Kingdom"
880,Q770276,item,Toling Monastery,79.79805556,31.48361111,"building in Zanda County, China"
881,Q770303,item,Boulevard Léopold II - Leopold II-laan,4.338108,50.861054,"street in Molenbeek-Saint-Jean and Koekelberg, Belgium"
882,Q770338,item,Itaporã do Tocantins,-48.688888888889,-8.5708333333333,municipality of Brazil
883,Q770379,item,Pierrefitte-en-Cinglais,-0.38805555555556,48.903055555556,"commune in Calvados, France"
884,Q770408,item,Buciumi,26.783333333333,46.2,"commune in Bacău County, Romania"
885,Q770422,item,García de Hevia,-72.2483,8.21889,"municipality in the state of Táchira, Venezuela"
886,Q770424,item,Jakobshavn Glacier,-49.833333333333,69.166666666667,glacier in Greenland
887,Q770435,item,Osiemborów,21.32083333,51.77666667,"village in Masovian Voivodeship, Poland"
888,Q770452,item,Villarsel-le-Gibloux,7.0168,46.71498,former municipality of Switzerland
889,Q770473,item,Anjou Bastion,19.028226,47.504948,
890,Q770536,item,Battle of Inkerman,33.592,44.585,battle on 5 November 1854 during the Crimean War
891,Q770571,item,Johnson City,-82.35347222222222,36.31344444444444,"city in Tennessee, United States"
892,Q770572,item,Slavkovský štít,20.184638888889,49.166222222222,"mountain in High Tatras, Slovakia"
893,Q770580,item,Cetinje Monastery,18.921666666667,42.387777777778,monastery
894,Q770594,item,Kyzyl Airport,94.40515,51.676072222222,airport
895,Q770622,item,Moutiers-sous-Chantemerle,-0.61833333333333,46.695555555556,"commune in Deux-Sèvres, France"
896,Q770623,item,Katusice,14.77744634655,50.445168046224,village in Mladá Boleslav District of Central Bohemian region
897,Q770663,item,Harmi,25.199444444444,59.117222222222,"village in Kose Rural Municipality, Harju County, Estonia"
898,Q770683,item,"San Jorge, Uruguay",-55.895833333333,-32.843055555556,human settlement
899,Q770693,item,Hrabovčík,21.556944,49.281667,municipality of Slovakia
900,Q770724,item,Donja Papratnica,18.1,44.08333333,human settlement in Bosnia and Herzegovina
901,Q770819,item,Saskatchewan Glacier,-117.193,52.1385,"Glacier in Banff NP, Alberta, Canada"
902,Q770877,item,Petrovičky,15.607426831668,50.299032076311,village in Jičín District of Hradec Králové region
903,Q770900,item,Caillac,1.3577777777778,44.486944444444,"commune in Lot, France"
904,Q770940,item,Žďákov Bridge,14.1839,49.5044,deck arch bridge
905,Q770941,item,Aslonnes,0.33444444444444,46.443611111111,"commune in Vienne, France"
906,Q770955,item,Habergrund,10.804963,50.408867,river in Germany
907,Q770961,item,East Rock,-72.904722222222,41.327222222222,mountain
908,Q770982,item,Teberda Nature Reserve,41.42,43.32,protected area
909,Q770999,item,Timoradza,18.2366,48.8116,municipality of Slovakia
910,Q771036,item,Alforja,0.97553,41.21138,municipality of Spain
911,Q771042,item,Auhof,16.2266,48.178,quarter of Vienna
912,Q771057,item,Kościelna Góra,20.249166666667,52.135,village of Poland
913,Q771153,item,Taiya River,-135.348,59.48,river in the United States of America
914,Q771155,item,Klenak,18.5619,42.8183,Montenegrin village
915,Q771156,item,Bătrâni,26.1492,45.3139,"commune in Prahova County, Romania"
916,Q771214,item,Hidalgo del Parral,-105.66305555556,26.9325,"city in Hidalgo del Parral Municipality, Chihuahua, Mexico"
917,Q771244,item,Trüggelbach,8.44139,51.9617,river in Germany
918,Q771301,item,Estádio Prof. Dr. José Vieira de Carvalho,-8.61821944,41.23456944,"building in Maia, Porto District, Portugal"
919,Q771372,item,Kliucharky,22.643333333333,48.418333333333,settlement in Ukraine
920,Q771387,item,,-57.8217,-30.0433,locality
921,Q771407,item,Lac du Baggersee,7.7452777777778,48.543333333333,lake
922,Q771435,item,Wola Cygowska,21.4333,52.3167,village of Poland
923,Q771471,item,"Karolewo, Bydgoszcz County",18.09611111,53.30777778,village of Poland
924,Q771482,item,Sirifila-Boundy,-5.977222,14.375,commune of Mali
925,Q771548,item,Rue de la Pompe,2.2780859,48.8640063,Paris Métro station
926,Q771572,item,Williamsburg,-73.95,40.7,"neighborhood of Brooklyn, New York City"
927,Q771594,item,Pobiedziska Letnisko,17.24,52.474166666667,railway halt in Pobiedziska
928,Q771611,item,Nowy Jadów-Letnisko,21.6261,52.5019,village of Poland
929,Q771612,item,Aulavik National Park,-119.919,73.7003,"national park in Northwest Territories, Canada"
930,Q771667,item,"Zawierzbie, Świętokrzyskie Voivodeship",21.7081,50.6442,village of Poland
931,Q771682,item,Chicago Federal Building,-87.629085,41.879191,now-demolished building in Illinois
932,Q771700,item,Torrubia del Castillo,-2.311664,39.6585198,municipality of Spain
933,Q771733,item,Shimoji Station,137.3705,34.781,"railway station in Toyohashi, Aichi prefecture, Japan"
934,Q771769,item,Heréd,19.632,47.709,village in Hungary
935,Q771795,item,Erminów,20.16666667,52.21666667,village of Poland
936,Q771817,item,Portofino marine protected area,9.20777778,44.30388889,protected area in Italy (EUAP0949)
937,Q771820,item,Aulesburg,8.95611,51.0634,
938,Q771845,item,Redociny,19.45,51.53333333,village of Poland
939,Q771862,item,Vézillon,1.4,49.226111111111,"commune in Eure, France"
940,Q771868,item,Thelwall,-2.5308722222222,53.3824,"village in Warrington, Cheshire, United Kingdom"
941,Q771885,item,Troy Township,-82.306111111111,41.031111111111,"township in Ashland County, Ohio, United States"
942,Q771889,item,Nowy Jadów,21.6236,52.4905,village of Poland
943,Q771899,item,Aulhausen,7.8944444444444,49.994722222222,"Municipal district of Rüdesheim am Rhein, Germany"
944,Q771937,item,Marlinton,-80.0947,38.2247,town in West Virginia
945,Q772000,item,Pollusca,12.778989,41.882295,human settlement in Italy
946,Q772073,item,Stare Płudy,21.2664,52.5706,village of Poland
947,Q772088,item,Nowe Wypychy,21.289166666667,52.628888888889,village of Poland
948,Q772106,item,Puisieux,2.6947222222222,50.116111111111,"commune in Pas-de-Calais, France"
949,Q772138,item,Medil,11.62514,46.35463,frazione of Italy
950,Q772214,item,Chelif River,0.13138888888889,36.037777777778,river in Algeria
951,Q772227,item,"Dzierżkowice, Lower Silesian Voivodeship",16.412777777778,51.156111111111,village of Poland
952,Q772349,item,Liget,18.192080555556,46.2344,village in Hungary
953,Q772372,item,Irymple,142.16666666667,-34.233333333333,"town in Victoria, Australia"
954,Q772379,item,Mala Klisa,17.4705,45.7037,human settlement
955,Q772415,item,Wólka-Wojciechówek,21.3825,52.770277777778,village of Poland
956,Q772446,item,Avezac-Prat-Lahitte,0.33722222222222,43.065833333333,"commune in Hautes-Pyrénées, France"
957,Q772459,item,Grądy Zalewne,21.45,52.7667,village of Poland
958,Q772492,item,Mount Jefferson,-121.799573611,44.6743006,"Stratovolcano in the Cascade Range, Oregon, United States"
959,Q772506,item,Wielątki Rosochate,21.3167,52.6333,village of Poland
960,Q772576,item,Negrești-Oaș,23.424166666667,47.869444444444,"is a town in Satu Mare County, Romania and the capital of the Oaș Country ethnographic region."
961,Q772598,item,Kajū-ji,135.80755833333,34.961213888889,architectural structure
962,Q772613,item,San Lorenzo Tenochtitlán,-94.8,17.733333,human settlement in Mexico
963,Q772614,item,St Austell,-4.795,50.338,"town and civil parish in Cornwall, UK"
964,Q772668,item,Orthodox church of Saint George in Siemianówka,23.838722222222,52.902416666667,
965,Q772673,item,Missouri National Recreational River,-97.39277778,42.8625,protected area
966,Q772675,item,Theodosiopolis in Arcadia,30.7,28.19,"in Roman province Arcadia Aegypti, also a former archdiocese, now a Latin Catholic titular archbishopric, modern site of Taha-el-Amudein"
967,Q772681,item,Marsac-en-Livradois,3.7277777777778,45.478888888889,"commune in Puy-de-Dôme, France"
968,Q772730,item,"St. Michael's church, Katowice",19.00475,50.24094444,"church, cultural heritage monument in Poland"
969,Q772806,item,Gulf of Tadjoura,43.0,11.7,gulf in Djibouti and Somalia
970,Q772823,item,Saint-Pierre Airport,-56.174166666667,46.763055555556,airport
971,Q772844,item,Bondigoux,1.5402777777778,43.84,"commune in Haute-Garonne, France"
972,Q772873,item,"Jezierzyce, Pomeranian Voivodeship",17.1125,54.49361111,village of Poland
973,Q772903,item,Lyublino Park and Estate,37.74444444444445,55.68888888888889,
974,Q772905,item,Salavre,5.3461111111111,46.363888888889,"commune in Ain, France"
975,Q772927,item,Sidi Lantri,1.40222222,35.70138889,municipality of Algeria
976,Q772937,item,Čachovice,14.946006180929,50.275532264627,village in Mladá Boleslav District of Central Bohemian region
977,Q772970,item,Brda,17.0775,54.0325,river in Poland
978,Q772990,item,Majdanki,20.71666667,51.18333333,village of Poland
979,Q773030,item,Washington,-118.243,34.0204,Los Angeles Metro station
980,Q773033,item,Jing River,109.06642914,34.46184343,river in the People's Republic of China
981,Q773096,item,Pleasant Valley Township,-91.669166666667,42.949444444444,"township in Fayette County, Iowa, United States"
982,Q773152,item,Mittegroßefehn,7.5608333333333,53.391388888889,human settlement in Germany
983,Q773166,item,Krogulcza Mokra,21.0024,51.3337,village of Poland
984,Q773168,item,Stare Paski,20.3828,52.2264,village of Poland
985,Q773227,item,Kęty,19.216666666667,49.9,city of Poland
986,Q773281,item,Torrubia del Campo,-2.9613888888889,39.897222222222,municipality of Spain
987,Q773313,item,Hronské Kosihy,18.6,48.266666666667,municipality of Slovakia
988,Q773333,item,Mantaro River,-76.278611111111,-10.921388888889,river in Peru
989,Q773344,item,Aparhant,18.452538888889,46.332130555556,village in Hungary
990,Q773353,item,Ambérac,0.066111111111111,45.853055555556,"commune in Charente, France"
991,Q773358,item,Yzeux,2.1088888888889,49.974722222222,"commune in Somme, France"
992,Q773365,item,Mende,19.4576,47.4294,village in Hungary
993,Q773398,item,Peirescius,67.6,-46.5,lunar impact crater
994,Q773420,item,Zarza la Mayor,-6.8622222222222,39.877222222222,"human settlement in Cáceres Province, Extremadura, Spain"
995,Q773421,item,Lipno County,19.166666666667,52.85,powiat of Poland
996,Q773496,item,"Nieuwebrug, North Holland",4.6736,52.3722,human settlement
997,Q773526,item,Rural Architecture Museum of Sanok,22.213368,49.573975,open air museum in Poland
998,Q773530,item,"Strachocin, Lower Silesian Voivodeship",16.87555556,50.30805556,village of Poland
999,Q773604,item,Abu Basma Regional Council,34.973888888889,31.257777777778,municipality
1000,Q773619,item,Mikawa-Ōno Station,137.602903,34.951392,"railway station in Shinshiro, Aichi Prefecture, Japan"
1001,Q773649,item,Château de Monbazillac,0.49416666666667,44.796666666667,
1002,Q773650,item,"Cesarzowice, Środa Śląska County",16.56583333,51.10555556,village of Poland
1003,Q773670,item,Reeuwijk-Brug,4.7239,52.0467,town in the Netherlands
1004,Q773738,item,Zbijów Mały,21.0333,51.1667,village of Poland
1005,Q773754,item,Pitușca,28.4197222222,47.2397222222,"village in Călărași District, Moldova"
1006,Q773777,item,Dompierre-du-Chemin,-1.1436111111111,48.266944444444,"former commune in Ille-et-Vilaine, France"
1007,Q773807,item,Kjeungskjær Lighthouse,9.5306,63.7269,"lighthouse in Trøndelag, Norway"
1008,Q773837,item,Traian Vuia,22.067867,45.799731,"village in Timiș County, Romania"
1009,Q773842,item,North Rona,-5.82488,59.12196,remote Scottish island in the North Atlantic
1010,Q773865,item,General Intelligence Directorate,35.826545,31.969164,intelligence agency
1011,Q773867,item,Mârșani,24.01666667,44.01666667,"village in Dolj County, Romania"
1012,Q773926,item,Simao District,100.9765,22.77752,"district of Yunnan Province, China"
1013,Q773966,item,Ormylia,23.55,40.3,human settlement
1014,Q774007,item,Maquiné River,-50.133333333333,-29.733333333333,"river in Rio Grande do Sul, Brazil"
1015,Q774023,item,Neville,-107.673,49.971,"village in Saskatchewan, Canada"
1016,Q774054,item,1948 Palestinian exodus from Lydda and Ramle,34.8783,31.9417,1948 expulsion of Palestinians
1017,Q774100,item,Mutso,45.20777777777778,42.60666666666667,human settlement
1018,Q774118,item,Pinacothèque de Paris,2.32575,48.87069444,"museum in Paris, France"
1019,Q774156,item,Sibiville,2.3236111111111,50.298611111111,"commune in Pas-de-Calais, France"
1020,Q774273,item,"Poproč, Rimavská Sobota District",20.0337,48.5844,municipality of Slovakia
1021,Q774275,item,Maruéjols-lès-Gardon,4.1308333333333,44.005555555556,"commune in Gard, France"
1022,Q774311,item,Aurach (Rednitz),10.7319,49.3086,river in Germany
1023,Q774409,item,Sarry,4.4066666666667,48.917777777778,"commune in Marne, France"
1024,Q774417,item,Octeville-sur-Mer,0.11694444444444,49.555833333333,"commune in Seine-Maritime, France"
1025,Q774462,item,Kettwiger See,6.9388888888889,51.358333333333,reservoir
1026,Q774489,item,Somerville College,-1.261872,51.759644,college of the University of Oxford
1027,Q774506,item,"Mierucin, Sępólno County",17.7,53.3,village of Poland
1028,Q774511,item,Saubole,-0.125,43.312777777778,"commune in Pyrénées-Atlantiques, France"
1029,Q774532,item,Battle of Aquia Creek,-77.3157,38.3893,1861 battle of the American Civil War
1030,Q774585,item,Aquincum civil amphitheatre,19.04792,47.56761,"Roman amphitheatre in Budapest, Hungary"
1031,Q774600,item,Pont d'Aquitaine,-0.5367,44.879806,"bridge over the Garonne, north-west of the city of Bordeaux, in France"
1032,Q774616,item,Dora's Big River Adventure,6.97484,51.6195,
1033,Q774631,item,Tōei Station,137.714,35.0292,"railway station in Toei, Kitashitara district, Aichi prefecture, Japan"
1034,Q774663,item,Mental Hospital Obrawalde,15.618889,52.448817,"psychiatric institution in the Prussian province of Posen near Meseritz, now Międzyrzecz, Poland"
1035,Q774725,item,Girardota,-75.446111111111,6.3769444444444,Colombian municipality of the department of Antioquia. alcalde Fernando Ortiz Sánchez
1036,Q774759,item,Portage Glacier,-148.78555555556,60.753055555556,glacier in the United States
1037,Q774814,item,Jigodin-Băi,25.809166666667,46.340555555556,"locality in Harghita County, Romania"
1038,Q774859,item,Bintan Island,104.48333333333,1.0833333333333,An island in the Riau Islands region
1039,Q774881,item,"Brzozowiec, Greater Poland Voivodeship",17.796111111111,52.553611111111,village of Poland
1040,Q774891,item,Srednja Bistrica,16.276667,46.550556,human settlement
1041,Q774921,item,Gare de Taverny,2.221389,49.025278,railway station
1042,Q774941,item,Chacaltaya,-68.131388888889,-16.353333333333,mountain
1043,Q774989,item,Vertolaye,3.7072222222222,45.649444444444,"commune in Puy-de-Dôme, France"
1044,Q774991,item,North Harbor Tower,-87.6155,41.8854,skyscraper
1045,Q775042,item,Fudōnosawa Station,141.562097,38.898658,"former railway station, now a BRT station in Japan"
1046,Q775052,item,,19.926719,47.779586,primary school
1047,Q775054,item,Piddubne,23.715277777778,50.353333333333,"village in Sokal Raion, Lviv Oblast, Ukraine"
1048,Q775118,item,Mišovice,14.004972153267,49.495339655718,village in Písek District of South Bohemian region
1049,Q775166,item,Gondole,3.187222,45.7225,human settlement in France
1050,Q775171,item,Torbido,16.3253,38.2939,river in Italy
1051,Q775252,item,Planai,13.694,47.392,mountain in the Schladminger Tauern in Styria
1052,Q775259,item,Heippes,5.2930555555556,48.993888888889,"commune in Meuse, France"
1053,Q775320,item,Hennemont,5.6661111111111,49.133611111111,"commune in Meuse, France"
1054,Q775375,item,Grazay,-0.48222222222222,48.290555555556,"commune in Mayenne, France"
1055,Q775428,item,Glamsbjerg municipality,10.1036,55.2778,former municipality in Denmark
1056,Q775432,item,Fânațe,24.475404,46.769798,"village in Fărăgău municipality, Mureș County, Romania"
1057,Q775520,item,Sjonhem Church,18.52076,57.48558,church
1058,Q775530,item,Ribeirão do Largo,-40.738888888889,-15.458888888889,"municipality of Bahia State, Brazil"
1059,Q775555,item,Márok,18.50859,45.87416,village in Hungary
1060,Q775567,item,River Bush,-6.53326,55.21928,river in the United Kingdom
1061,Q775582,item,Shimokawai Station,137.786253,35.06925,"railway station in Hamamatsu, Shizuoka prefecture, Japan"
1062,Q775651,item,Plesná,12.346772975025,50.22082572875,town in the Czech Republic
1063,Q775703,item,Alna,10.860833333333,59.929166666667,"district of Oslo, Norway"
1064,Q775712,item,Rožmberk Castle,14.3651133,48.6560047,
1065,Q775768,item,The Manor Studio,-1.305,51.8456,recording studio
1066,Q775769,item,Miami Springs,-80.291111111111,25.819722222222,"city in Florida, USA"
1067,Q775795,item,Zlatníky,18.1219,48.7123,municipality of Slovakia
1068,Q775804,item,Sainte-Aulde,3.1730555555556,48.993888888889,"commune in Seine-et-Marne, France"
1069,Q775822,item,Scărișoara,22.87388889,46.45666667,"village in Alba County, Romania"
1070,Q775848,item,Namtok,98.04,20.38305556,human settlement in Myanmar
1071,Q775866,item,Castelferrus,1.0875,44.009444444444,"commune in Tarn-et-Garonne, France"
1072,Q775880,item,Pensarn,-3.577,53.293,human settlement
1073,Q775882,item,Veliki Lipoglav,14.645556,45.999167,human settlement
1074,Q775884,item,Runc,23.449311,46.501991,"village in Alba County, Romania"
1075,Q775897,item,"Jutiapa, Atlántida, Honduras",-86.511583333333,15.739611111111,human settlement
1076,Q775911,item,Kaufungen Abbey,9.6343,51.2801,monastery
1077,Q775946,item,Cristo del Otero,-4.52944,42.0283,sculpture
1078,Q776040,item,Herneacova,21.516085,45.857279,"village in Timiș County, Romania"
1079,Q776047,item,"Mariany, Kuyavian-Pomeranian Voivodeship",18.844722222222,53.155833333333,village of Poland
1080,Q776060,item,Patrimonio,9.3619444444444,42.6975,"French commune in Haute-Corse, Corsica"
1081,Q776063,item,"Kłódka, Warmian-Masurian Voivodeship",20.415,53.925833333333,village of Poland
1082,Q776071,item,Yaque del Norte River,-71.686944444444,19.84,river in the Dominican Republic
1083,Q776086,item,Budapest History Museum,19.04055556,47.49527778,"museum in Budapest, Hungary"
1084,Q776117,item,Ropice,18.5869,49.5967,mountain in Czech Republic
1085,Q776135,item,Montbizot,0.1825,48.147222222222,"commune in Sarthe, France"
1086,Q776142,item,Winshill,-1.605,52.807,village in United Kingdom
1087,Q776155,item,Paranaíba River,-46.174444444444,-19.2225,river in Brazil
1088,Q776166,item,The Honda Classic,-80.141,26.829,"golf tournament held in Florida, United States"
1089,Q776223,item,University of Montpellier,3.8638888888889,43.631944444444,"French university located in Montpellier, founded in 1289"
1090,Q776225,item,Rétság District,19.183333333333,47.916666666667,district of Hungary
1091,Q776244,item,Abbaye de Noirlac,2.4602777777778,46.745,"abbey located in Cher, in France"
1092,Q776266,item,Chamaloc,5.3838888888889,44.798611111111,"commune in Drôme, France"
1093,Q776271,item,Toulis-et-Attencourt,3.7430555555556,49.7,"commune in Aisne, France"
1094,Q776313,item,canton of Bully-les-Mines,2.724444444,50.441944444,canton of France
1095,Q776340,item,Balogna,8.7791666666667,42.177777777778,"commune in Corse-du-Sud, France"
1096,Q776349,item,Baghagha,-16.05583333,12.60638889,human settlement
1097,Q776539,item,Santa Elena,-89.73333333333333,20.25,"municipality in Yucatán State, Mexico"
1098,Q776541,item,Auvillars,0.065555555555556,49.196944444444,"commune in Calvados, France"
1099,Q776565,item,County of Zweibrücken,7.366666666666666,49.25,Holy Roman Empire territory
1100,Q776620,item,Lovčica-Trubín,18.79555556,48.61888889,municipality of Slovakia
1101,Q776707,item,"Ardatovsky District, Republic of Mordovia",46.23333333,54.85,municipal district in Russia
1102,Q776771,item,Bednja,15.98,46.23,municipality of Croatia
1103,Q776791,item,Goslar,-55.159113,5.818192,cargo ship
1104,Q776826,item,Combourtillé,-1.2455555555556,48.271944444444,"commune in Ille-et-Vilaine, France"
1105,Q776871,item,Zbruchans'ke,26.271251116205,48.65984236471,"village in Borschiv Raion, Ternopil Oblast, Ukraine"
1106,Q777049,item,Saint-Priest-Bramefant,3.4408333333333,46.028888888889,"commune in Puy-de-Dôme, France"
1107,Q777129,item,Calopăr,23.766666666667,44.166666666667,"village in Dolj County, Romania"
1108,Q777206,item,"Gazivode, Sokolac",18.82833333,43.91222222,human settlement in Bosnia and Herzegovina
1109,Q777214,item,Hruševec Kupljenski,15.79694444,45.94638889,human settlement
1110,Q777259,item,Enese,17.420538888889,47.645711111111,village in Hungary
1111,Q777353,item,Lalanne,0.68416666666667,43.797222222222,"commune in Gers, France"
1112,Q777357,item,Egen Parish,9.86918056,54.98406667,subdivision of the Diocese of Haderslev
1113,Q777373,item,São Brissos,-7.94666667,38.07222222,locality and former civil parish in Portugal
1114,Q777431,item,Hlohová,13.074617227166,49.534139038517,village in Domažlice District of Plzeň region
1115,Q777442,item,canton of La Ferté-Alais,2.35065205,48.47027039,canton of France (until March 2015)
1116,Q777457,item,Tinerkouk,0.71666666666667,29.7,municipality of Algeria
1117,Q777472,item,Laversines,2.1972222222222,49.425,"commune in Oise, France"
1118,Q777475,item,Claygate,-0.3421,51.3607,"a village located in Elmbridge, United Kingdom"
1119,Q777503,item,Qingyun County,117.385,37.775,country in the People's Republic of China
1120,Q777535,item,Stadio Armando Picchi,10.314167,43.526667,"multi-purpose stadium in Livorno, Italy"
1121,Q777557,item,Simandre-sur-Suran,5.4169444444444,46.225277777778,"commune in Ain, France"
1122,Q777617,item,Fushan County,111.84455,35.97049,county
1123,Q777645,item,Dolliver,-94.615,43.464722222222,"city in Emmet County, Iowa, United States"
1124,Q777672,item,Tannadice Park,-2.968961,56.474703,"football stadium in Dundee, Scotland, UK"
1125,Q777709,item,Millbrook railway station,-0.5338,52.0538,"railway station in Millbrooke, Bedfordshire, England"
1126,Q777726,item,Church of the Holy Spirit,24.745833333333,59.438055555556,"church building in Tallinn, Estonia"
1127,Q777836,item,Aroneanu,27.6,47.2,"village in Iași County, Romania"
1128,Q777846,item,Ausbesserungswerk Braunschweig,10.5489,52.2444,
1129,Q777916,item,Convincing Ground massacre,141.66,-38.2784,1830s massacre in Australia
1130,Q777946,item,Le Cergne,4.3063888888889,46.121111111111,"commune in Loire, France"
1131,Q777986,item,Benicalap,-0.390233,39.4923,"municipal district of Valencia, Spain"
1132,Q778010,item,Battles of Lexington and Concord,-71.230833,42.449639,first military engagements of the American Revolutionary War (1775)
1133,Q778035,item,Darunta training camp,70.36666666666666,34.492777777777775,
1134,Q778172,item,Diocese of Brechin,-2.97222,56.4594,episcopal diocese
1135,Q778238,item,Auschnippe,9.71418,51.5719,river in Germany
1136,Q778251,item,Dzierżoniów,16.651111111111,50.728055555556,city and urban gmina of Poland
1137,Q778286,item,Umirim,-39.35,-3.6769444444444,municipality of Brazil
1138,Q778313,item,Piastów,20.83952,52.18435,city and urban gmina of Poland
1139,Q778335,item,Fremont,-92.435,41.212222222222,"city in Mahaska County, Iowa, United States"
1140,Q778454,item,Battle of Mount Ortigara,11.521944,46.01,battle
1141,Q778466,item,Great Whelnetham,0.751,52.206,"a village located in St Edmundsbury, United Kingdom"
1142,Q778497,item,Espírito Santo,-7.6483333333333,39.510277777778,"locality and former civil parish in Nisa, Portugal"
1143,Q778531,item,Karachi Safari Park,67.1125,24.920833333333334,safari park in Pakistan
1144,Q778587,item,"Rupin, Maków County",21.3667,52.95,village of Poland
1145,Q778623,item,Luttenberg,6.3661,52.4058,"village in Overijssel, the Netherlands"
1146,Q778686,item,Hungarian Natural History Museum,19.08555556,47.48222222,"natural history museum in Budapest, Hungary"
1147,Q778699,item,Siege of Baler,121.562308,15.759037,"battle of the Philippine Revolution from July 1, 1898 to June 2, 1899"
1148,Q778733,item,Operation Shmone,34.68220833,31.64812222,military operation
1149,Q778739,item,Cărbunari,21.73333333,44.85,"village in Caraș-Severin County, Romania"
1150,Q778746,item,Kobylin-Cieszymy,22.6839,53.1161,village of Poland
1151,Q778782,item,Landstuhl Regional Medical Center,7.560278,49.404167,U.S. Army hospital in Germany
1152,Q778800,item,Battle of Abukir (1799),30.066666666667,31.316666666667,first battle of the French campaign in Egypt and Syria to be fought at Abu Qir
1153,Q778818,item,Holendernia,23.072222222222,51.662777777778,village of Poland
1154,Q778824,item,Forbach equalising basin,8.35444,48.6714,"reservoir near Forbach, Baden-Württemberg, Germany"
1155,Q778876,item,,7.1025,51.22333333,
1156,Q778904,item,Stein Castle,12.5469791607625,47.9881767755429,château
1157,Q778915,item,Čeľovce,21.633333,48.6,municipality of Slovakia
1158,Q778955,item,Vaux-sur-Poligny,5.7230555555556,46.8275,"commune in Jura, France"
1159,Q778973,item,Saint-André-de-Bâgé,4.9172222222222,46.294722222222,"commune in Ain, France"
1160,Q778980,item,"Czernica, Silesian Voivodeship",18.40068,50.08391,village of Poland
1161,Q778996,item,Bikaner district,73.3,28.0167,"district of Rajasthan, India"
1162,Q779157,item,Petronius,-87.941666666667,29.108333333333,Oil platform in the Gulf of Mexico
1163,Q779196,item,Chorzów Power Station,18.969583,50.308167,coal power plant
1164,Q779366,item,former Cistercian monastery Gnadenthal,8.302766382,47.39359532,"monastery in Niederwil in the canton of Aargau, Switzerland"
1165,Q779370,item,Divinka,18.697222,49.252778,municipality of Slovakia
1166,Q779466,item,Legarda,-1.7702777777778,42.712222222222,municipality of Spain
1167,Q779596,item,Kowen,149.3137,-35.3108,district of the Australian Capital Territory
1168,Q779737,item,Dudín,15.397639071884,49.451060261257,village in Jihlava District of Vysočina region
1169,Q779771,item,Asău,26.3077835,46.5997748,"commune in Bacău County, Romania"
1170,Q779773,item,Ramouzens,0.18527777777778,43.813333333333,"commune in Gers, France"
1171,Q779805,item,Bari Karol Wojtyła Airport,16.760594444444,41.138855555556,"international airport serving Bari, Italy"
1172,Q779810,item,"Santa Maria Donnalbina, Naples",14.252553,40.844575,church
1173,Q779895,item,MMT Observatory,-110.885,31.6883,an astronomical observatory
1174,Q779961,item,Savignac-les-Églises,0.91611111111111,45.274166666667,"commune in Dordogne, France"
1175,Q779979,item,"Oostdijk, South Holland",3.9586,51.8258,buurtschap
1176,Q780025,item,Iža,18.23333333,47.75055556,municipality of Slovakia
1177,Q780026,item,Hrabětice,16.393418890947,48.797684939139,village in Znojmo District of South Moravian region
1178,Q780052,item,battle of Jemgum,7.385,53.2658,
1179,Q780078,item,Pécsudvard,18.2768,46.00989,village in Hungary
1180,Q780124,item,La Chapelle-Basse-Mer,-1.3380555555556,47.271666666667,"former commune in Loire-Atlantique, France"
1181,Q780134,item,Strusino,19.7157,52.6919,village in Poland
1182,Q780146,item,Etes,19.718838888889,48.109838888889,municipality of Hungary
1183,Q780149,item,Monastic Republic of Mount Athos,24.3264,40.1572,autonomous administrative territory in Greece
1184,Q780196,item,Amud,43.232222222222,9.9991666666667,archaeological site in Somalia
1185,Q780285,item,Château Pichon Longueville Comtesse de Lalande,-0.752414,45.17618,winery
1186,Q780296,item,Atkár,19.89124,47.72111,village in Hungary
1187,Q780315,item,Aussersihler Viadukt,8.5225777777778,47.386205555556,
1188,Q780344,item,Altberg Observation Tower,8.40809,47.4363,observation tower in Switzerland
1189,Q780374,item,Penalva do Castelo,-7.6833333333333,40.666666666667,municipality and town of Portugal
1190,Q780389,item,Observation tower Großer Feldberg,8.45728,50.232,"observation tower on Großer Feldberg mountain in Taunus, Hesse"
1191,Q780393,item,Tanjungrasa railway station,107.541,-6.40833,"railway station in Subang Regency, Indonesia"
