,id,type,english_label,longitude,latitude,english_desc
0,Q596141,item,East Drumore Township,-76.166388888889,39.858333333333,"township in southern Lancaster County, Pennsylvania"
1,Q596174,item,"Luxi County, Hunan",110.20992,28.21883,county
2,Q596179,item,"Klepaczka, Kłobuck County",18.83333333,50.85,village of Poland
3,Q596228,item,JR–Maglev,138.93333333,35.58333333,Japanese maglev system
4,Q596232,item,"Vanport City, Oregon",-122.69565,45.600647222222,human settlement in United States of America
5,Q596283,item,Hraničné,20.69944444,49.37555556,municipality of Slovakia
6,Q596287,item,Villademor de la Vega,-5.5688888888889,42.270277777778,municipality of Spain
7,Q596342,item,Saint-Aubin-de-Blaye,-0.56083333333333,45.268055555556,"commune in Gironde, France"
8,Q596382,item,Djouab,3.433333,36.133333,municipality of Algeria
9,Q596397,item,Jeu-les-Bois,1.795,46.673333333333,"commune in Indre, France"
10,Q596462,item,Tchoumi-Tchoumi,1.41667,10.15,arrondissement of Benin
11,Q596464,item,Los Arquillos,-2.67183687534,42.8470395512,"cultural property in Vitoria, Spain"
12,Q596466,item,Condeúba,-41.968888888889,-14.895,"municipality of Bahia State, Brazil"
13,Q596467,item,Condeissiat,5.08,46.158333333333,"commune in Ain, France"
14,Q596627,item,"Pietrzykowice, Silesian Voivodeship",19.15,49.68333333,village of Poland
15,Q596642,item,Eden Project,-4.7447222222222,50.361944444444,visitor attraction in Cornwall in the United Kingdom
16,Q596673,item,Parenty,1.8091666666667,50.587777777778,"commune in Pas-de-Calais, France"
17,Q596679,item,Gilley,5.6358333333333,47.691111111111,"commune in Haute-Marne, France"
18,Q596768,item,Petregan playa,60.6167,33.45,desert
19,Q596781,item,San Francisco de Yare,-66.75,10.183333333333,locality
20,Q596831,item,Covel,-81.3197122,37.4907438,"census designated place in Wyoming County, West Virginia, United States"
21,Q596852,item,Monguilhem,-0.18138888888889,43.855277777778,"commune in Gers, France"
22,Q596861,item,Mucsi,18.394319444444,46.429980555556,village in Hungary
23,Q596885,item,Blaenau Gwent County Borough,-3.1963888888889,51.775833333333,"principal area in south-east Wales, United Kingdom"
24,Q596931,item,Ubatuba,-45.070833333333,-23.433888888889,"Brazilian city, located on the southeast coast, in the state of São Paulo"
25,Q596951,item,Ny Church,14.76916667,55.13944444,church in Bornholm
26,Q596966,item,Fors,-0.40916666666667,46.236388888889,"commune in Deux-Sèvres, France"
27,Q597002,item,Trenčianska Teplá,18.11666667,48.93333333,municipality of Slovakia
28,Q597007,item,Bishop Municipal Airport,-97.7525,27.6103,airport
29,Q597021,item,Bisbee-Douglas International Airport,-109.60361111111,31.468888888889,"airport in Cochise County, Arizona, United States"
30,Q597029,item,Bagua Grande District,-78.441111111111,-5.7561111111111,district of Peru
31,Q597093,item,Peacock Township,-85.862777777778,44.028888888889,township of Michigan
32,Q597133,item,"Kurówko, West Pomeranian Voivodeship",16.570833333333,54.055277777778,village of Poland
33,Q597142,item,Hem,1.926388888888889,50.72611111111111,watercourse
34,Q597172,item,Radića Brdo,17.645,44.2303,village in Bosnia and Herzegovina
35,Q597190,item,Szeremle,18.883333,46.15,village in Hungary
36,Q597237,item,Vulture Mine,-112.836,33.8217,"ghost town in Maricopa County, Arizona, United States"
37,Q597345,item,Aračinovo Municipality,21.57,42.04,local administrative unit (opština) in North Macedonia
38,Q597399,item,Charancieu,5.5816666666667,45.525,"commune in Isère, France"
39,Q597464,item,Kirkop,14.485,35.841944444444,local council of Malta
40,Q597478,item,Battle of the Vorskla River,34.121666666667,48.904166666667,battle
41,Q597548,item,"Mierzęcin, Sierpc County",19.6631,52.95,village of Poland
42,Q597573,item,National Theater of Albania,19.8205,41.3265,venue
43,Q597596,item,Gliwice Radio Tower,18.688888888889,50.313333333333,"transmission tower in the Szobiszowice district of Gliwice, Upper Silesia, Poland"
44,Q597647,item,Blackwell Field,-85.6206,31.4319,airport
45,Q597664,item,Birr Aerodrome,-7.8986111111111,53.070833333333,airport
46,Q597671,item,Hawai'i Department of Education,-157.8552777777778,21.309444444444445,state education agency
47,Q597679,item,Pilliga,148.9011111,-30.35666666666667,"town in New South Wales, Australia"
48,Q597693,item,Guavata,-73.700833333333,5.9544444444444,Colombian municipality of the department of Santander
49,Q597704,item,Bestorp,15.731672159655,58.233416589594,"urban area in Linköping Municipality, Sweden"
50,Q597718,item,Birch Creek Airport,-145.824,66.2739,airport
51,Q597728,item,Fizeau,-133.9,-58.6,lunar crater
52,Q597752,item,Rigny-la-Nonneuse,3.6625,48.410555555556,"commune in Aube, France"
53,Q597759,item,Görlitzer Bahnhof,13.428,52.4992,Berlin U-Bahn station
54,Q597796,item,Japanese battleship Hiei,158.99972222222,-9.0,warship of the Imperial Japanese Navy
55,Q597809,item,Sarasinpark,7.65131,47.5872,"park in Riehen in the canton of Basel-Stadt, Switzerland"
56,Q597820,item,Saint-Cyr,4.8897222222222,46.680833333333,"commune in Saône-et-Loire, France"
57,Q597828,item,Blackwater Airport,148.80694444444,-23.603055555556,airport
58,Q597850,item,Welfenschloss,9.7177777777778,52.382222222222,geographical object
59,Q597879,item,Bismarck Memorial Airport,-90.6167,37.7589,airport
60,Q597915,item,Bijapur Airport,74.949722222222,16.781666666667,airport
61,Q597945,item,Sivas 4 Eylül Stadium,36.984065,39.728612,football stadium
62,Q598009,item,Obukhivka,34.866402713809,48.544164316609,"Urban-type settlement in Dnipropetrovsk Oblast, Ukraine"
63,Q598070,item,Alumni Stadium,-71.166388888889,42.335,American college football stadium
64,Q598072,item,Curuá River,-54.4525,-5.376452,river in the Brazilian state of Pará
65,Q598091,item,Bingham Township,-93.913333333333,43.213333333333,township of Iowa
66,Q598124,item,Fortine,-114.90305555556,48.764444444444,"census-designated place in Lincoln County, Montana, United States"
67,Q598206,item,Wdzydze Kiszewskie,17.93502,54.01304,village of Poland
68,Q598215,item,Biskra Mohamed Khider Airport,5.7383055555556,34.793361111111,Airoports in Algeria
69,Q598221,item,Japanese battleship Yamashiro,125.35555556,10.37222222,Fusō-class dreadnought battleship
70,Q598231,item,Birsa Munda Airport,85.321666666667,23.314166666667,"airport in Ranchi, India"
71,Q598232,item,Arroyo Sarandi Chico,-53.60888889,-32.98611111,"arroyo in Treinta y Tres, Uruguay"
72,Q598240,item,Castell de Viuet,0.71515556,42.44899722,
73,Q598282,item,Bloemfontein Airport,26.303888888889,-29.093888888889,airport in South Africa
74,Q598301,item,San Giovanni Bosco,15.161944444444,37.656944444444,frazione of Italy
75,Q598303,item,Westlinton,-2.948,54.971,"village and civil parish in Cumbria, England"
76,Q598324,item,Blackall Airport,145.42861111111,-24.427777777778,airport
77,Q598340,item,Lubny Raion,33.047178,50.044752,raion of Ukraine
78,Q598393,item,Pontorson - Mont-Saint-Michel,-1.505088,48.552528,railway station
79,Q598394,item,Căpâlna de Sus,24.43502,46.378463,"village in Mureș County, Romania"
80,Q598445,item,"Jewish Cemetery, Koblenz",7.5855,50.3621,
81,Q598470,item,Charlęż,22.71666667,51.33333333,village in Poland
82,Q598479,item,New River,-115.24361111111,32.379166666667,river that flows from Mexico to the United States
83,Q598500,item,Ostojićevo,20.164166666667,45.890833333333,"village in Čoka municipality, Serbia"
84,Q598550,item,Neamț Monastery,26.20136,47.26955,"heritage site in Neamț County, Romania"
85,Q598556,item,Blue River Airport,-119.283,52.1167,"airport in British Columbia, Canada"
86,Q598560,item,Vadenay,4.4,49.071666666667,"commune in Marne, France"
87,Q598597,item,Petneházyrét,18.944722,47.533333,"city part of Budapest, Hungary"
88,Q598607,item,Beit HaEmek,35.144897222222,32.971097222222,human settlement
89,Q598623,item,Radioacktiva,-74.0758,4.59806,radio station
90,Q598624,item,Canohès,2.8344444444444,42.651944444444,"commune in Pyrénées-Orientales, France"
91,Q598661,item,Bobo Dioulasso Airport,-4.330833,11.16,airport
92,Q598662,item,Costa da Caparica,-9.23556,38.64458,city and civil parish in Almada
93,Q598718,item,Arizona State Route 71,-113.022652,34.079394,"state highway in Maricopa and Yavapai counties in Arizona, United States"
94,Q598754,item,Undeloh,9.9833333333333,53.196111111111,municipality of Germany
95,Q598793,item,Lhuntse District,91.0,27.666666666667,dzongkhag
96,Q598811,item,"Cathedral of St Joseph, Sofia",23.319722,42.698611,cathedral
97,Q598830,item,"Bagno, Lower Silesian Voivodeship",16.81944444,51.33861111,village of Poland
98,Q598850,item,Biju Patnaik Airport,85.817777777778,20.244444444444,airport
99,Q598857,item,Lincoln Square,-87.69,41.97,"Lincoln Square, Chicago"
100,Q598878,item,Sedgwick,-102.525,40.9358,human settlement in Colorado
101,Q598975,item,Uniseum,7.84863,47.995345,"museum at the Albert-Ludwigs-University in Freiburg, Germany"
102,Q598985,item,Begusarai,86.13,25.42,city in Bihar
103,Q598990,item,Laze,15.633497,45.850664,human settlement
104,Q598999,item,,-1.0983333333333,37.692222222222,mountain
105,Q599021,item,San Sepolcro Church,9.18527778,45.46305556,"church in Milan, Italy"
106,Q599051,item,Pilón Lajas Biosphere Reserve and Communal Lands,-67.2,-15.0,protected area
107,Q599113,item,Katov,14.828544604464,49.281782804564,village in Tábor District of South Bohemian region
108,Q599127,item,Overijse,4.5333333333333,50.783333333333,"municipality in Flemish Brabant, Belgium"
109,Q599129,item,Capt. Nathaniel B. Palmer House,-71.907819,41.342917,house
110,Q599179,item,Breux-Jouy,2.155,48.559444444444,"commune in Essonne, France"
111,Q599201,item,Hayti,-97.204444444444,44.6575,"town in and county seat of Hamlin County, South Dakota, United States"
112,Q599229,item,Messincourt,5.1538888888889,49.680277777778,"commune in Ardennes, France"
113,Q599234,item,Gaafaru,73.49861111,4.73611111,"island in Kaafu Atoll, Maldives"
114,Q599244,item,Préchac-sur-Adour,-0.0030555555555556,43.6025,"commune in Gers, France"
115,Q599258,item,,-43.785833,-20.66,microregion of Brazil
116,Q599284,item,Pamplico,-79.567777777778,33.996111111111,"human settlement in Florence County, South Carolina, United States of America"
117,Q599291,item,Ringsfield,1.52,52.43,village and civil parish in the English county of Suffolk
118,Q599316,item,New School,-73.99704,40.73534,"private research university, located in Greenwich Village, New York City, United States"
119,Q599339,item,Grebs-Niendorf,11.3,53.25,municipality of Germany
120,Q599365,item,Malé Dvorníky,17.643055555556,48.011111111111,municipality of Slovakia
121,Q599407,item,Christiansburg,-84.0253,40.0558,"village in Champaign County, Ohio, United States"
122,Q599512,item,Visbek,8.316666666666666,52.833333333333336,municipality of Germany
123,Q599555,item,canton of Mortrée,0.05067177,48.665148,canton of France (until March 2015)
124,Q599570,item,Caicos Islands,-71.89373056,21.65323056,archipelago
125,Q599572,item,Nová Ves u Bakova,14.926481193955,50.490737581245,village in Mladá Boleslav District of Central Bohemian region
126,Q599647,item,Battle of Cassano,9.516771,45.52606,1259 battle between the Guelphs and Ghibellines
127,Q599678,item,Powell River,-124.52472222222,49.835277777778,"city in British Columbia, Canada"
128,Q599688,item,Falfield,-2.459,51.637,"a village located in South Gloucestershire, United Kingdom"
129,Q599695,item,Pöllat,10.7558,47.5851,"stream in Bavaria, Germany"
130,Q599711,item,Cours-les-Barres,3.0313888888889,47.024722222222,"commune in Cher, France"
131,Q599734,item,Padre Mier,-100.31544,25.66888,"metro station in Monterrey, Mexico"
132,Q599787,item,Cosuenda,-1.2983033,41.3639541,municipality of Spain
133,Q599792,item,canton of Saint-Trivier-de-Courtes,5.08222222,46.46027778,canton of France (until March 2015)
134,Q599804,item,Peloritani,15.333333333333,38.05,mountain range
135,Q599888,item,Gronajny,19.05167,53.98222,village of Poland
136,Q599926,item,Saint-Georges-les-Bains,4.8091666666667,44.861111111111,"commune in Ardèche, France"
137,Q599940,item,Landskrona konsthall,12.82416667,55.87055556,"art space in Landskrona, Sweden"
138,Q600012,item,Mörrum,14.759614761352,56.191725570733,"urban area in Karlshamn Municipality, Sweden"
139,Q600039,item,Miřetice,14.976575497323,49.659011051699,village in Benešov District of Central Bohemian region
140,Q600081,item,Oromia Zone,40.0,10.6667,zone of Ethiopia
141,Q600091,item,canton of Chalon-sur-Saône-Sud,4.87592174,46.75149341,canton of France (until March 2015)
142,Q600122,item,Solen,-100.79583333333,46.387777777778,"city in Sioux County, North Dakota, United States"
143,Q600143,item,Río Muerto,-61.65444444,-26.30777778,locality
144,Q600166,item,Urup,40.9764,43.6764,"river in Karachay-Cherkessia and Krasnodar Krai, Russia"
145,Q600174,item,,13.876,45.133,human settlement
146,Q600197,item,Lyng Parish,9.73,55.52972222,subdivision of the Diocese of Haderslev
147,Q600200,item,Trashiyangtse District,91.416666666667,27.666666666667,dzongkhag
148,Q600249,item,Lisikierz,21.98333333,51.86666667,village of Poland
149,Q600270,item,canton of Grésy-sur-Isère,6.30487345,45.62837445,canton of France (until March 2015)
150,Q600284,item,Cerejo,-7.2236111111111,40.729444444444,locality and former civil parish in Portugal
151,Q600325,item,"Belleview Precinct, Calhoun County, Illinois",-90.774138888889,39.362788888889,precinct
152,Q600327,item,"Bistrica, Slatina",17.61666667,45.73333333,human settlement
153,Q600345,item,arrondissement of Nyons,5.13111111,44.35777778,arrondissement of France
154,Q600367,item,Manchester Piccadilly station,-2.23,53.477,"railway station in Manchester, England"
155,Q600405,item,Gusau,6.6666666666667,12.166666666667,city and local government area in Nigeria
156,Q600516,item,Obrež,19.9719,44.7357,"village in Pećinci municipality, Serbia"
157,Q600562,item,Mthethwa Paramountcy,31.8486,-28.515,former country
158,Q600578,item,Remagne,5.495,49.9769,"section of Libramont-Chevigny, Belgium"
159,Q600605,item,Kalk Bay,18.448333333333,-34.127777777778,town
160,Q600611,item,Frolovsky District,43.91667,49.83333,municipal district in Russia
161,Q600613,item,Niesadna,21.6,51.9833,village of Poland
162,Q600634,item,Pontifícia Universidade Católica do Rio Grande do Sul,-51.17444444,-30.05777778,"private non-profit Catholic university in Rio Grande do Sul, Brazil"
163,Q600655,item,Jazbin Vrh,15.371664,46.169514,human settlement
164,Q600671,item,Villava-Atarrabia,-1.6086111111111,42.830833333333,"human settlement in Cuenca de Pamplona, Navarre, Spain"
165,Q600749,item,"Santa Cruz, Coimbra",-8.4432,40.22958,locality and former civil parish in Portugal
166,Q600761,item,Horn Lake,-90.0431,34.9586,"city in DeSoto County, Mississippi, United States"
167,Q600764,item,Brieva de Cameros,-2.7947222222222,42.164722222222,municipality of Spain
168,Q600843,item,Condor,-53.486944444444,-28.207777777778,"municipality in Rio Grande do Sul, Brazil"
169,Q600862,item,Laryszów,18.78083333,50.44472222,village of Poland
170,Q600872,item,Thruxton,-2.82,52.007,"village and civil parish in Herefordshire, England"
171,Q600878,item,Beckenberg,14.6717,50.983,mountain
172,Q600883,item,Temsia,-9.41444,30.363333,City in Morocco
173,Q600924,item,Foreigners University of Siena,11.3325,43.3192,Italian university
174,Q601029,item,Baides,-2.7761111111111,41.006944444444,municipality of Spain
175,Q601069,item,Zittau Mountains Nature Park,14.7152564,50.8919822,"nature park in Saxony, Germany"
176,Q601127,item,"Alegria, Rio Grande do Sul",-54.056944444444,-27.826944444444,human settlement
177,Q601194,item,Glejsk,23.614444444444,53.0975,village of Poland
178,Q601233,item,South Elkhorn Township,-91.1256,38.7883,township of Missouri
179,Q601253,item,Rasino,20.8589,41.2044,village in North Macedonia
180,Q601279,item,Moisie River,-66.0675,50.2,river in Canada
181,Q601352,item,Carral,-8.3559999,43.229551,municipality of Spain
182,Q601371,item,Gmina Latowicz,21.810833333333,52.026666666667,rural gmina of Poland
183,Q601372,item,"Unín, Skalica District",17.21472222,48.72861111,municipality of Slovakia
184,Q601382,item,"Stachowo, Piaseczno County",20.8444,52.0433,village of Poland
185,Q601383,item,San Gervasio,-86.848297,20.500351,archaeological Maya site on Cozumel in Mexico‎
186,Q601396,item,"Old Town, Isles of Scilly",-6.29944,49.9131,village in United Kingdom
187,Q601410,item,Ramdane Djamel,6.9,36.75,town and commune in northeastern Algeria
188,Q601452,item,Důl,15.030115584007,49.452152242461,village in Pelhřimov District of Vysočina region
189,Q601473,item,Boeni ya Bambao,43.352,-11.631,geographical object
190,Q601477,item,Long Beach,-89.159722222222,30.3525,"city in Mississippi, United States"
191,Q601519,item,Metro Ricardo Flores Magón,-99.103675,19.436567,metro station in Mexico City
192,Q601546,item,Cualedro,-7.5830555555556,41.983055555556,municipality of Spain
193,Q601548,item,Victoria Strait,-100.5,69.51666667,strait
194,Q601562,item,South River railway station,-79.375706,45.841475,"railway station in Ontario, Canada"
195,Q601591,item,Żychlikowo,14.9,53.7,village of Poland
196,Q601622,item,"Wólka, Suwałki County",22.74,54.0439,village of Poland
197,Q601638,item,Tekokota,-142.61666666667,-17.316666666667,island in French Polynesia
198,Q601639,item,Chavot-Courcourt,3.9297222222222,49.003611111111,"commune in Marne, France"
199,Q601654,item,Budolfi Church,9.91958,57.0479,cathedral
200,Q601684,item,Podolie,17.77222222,48.67222222,municipality of Slovakia
201,Q601728,item,Mundesley,1.438,52.876,"a village located in North Norfolk, United Kingdom"
202,Q601732,item,San Giuliano,12.427879,41.974949,architectural structure
203,Q601809,item,"Kon, India",73.106,19.2489,human settlement
204,Q601863,item,Fort-Mardyck,2.3061,51.031,"former commune in Nord, France"
205,Q601873,item,Antonio Díaz,-60.9975,8.58,"municipality in the state of Delta Amacuro, Venezuela"
206,Q601955,item,Wszerzecz,21.933333333333334,53.11138888888889,village of Poland
207,Q601999,item,Lucena del Cid,-0.2808155,40.1372729,municipality of Spain
208,Q602000,item,Burrium,-2.903,51.702,
209,Q602048,item,Ministry of Tourism,-71.2163,46.8096,ministry of the government of Quebec
210,Q602059,item,"Rexton, New Brunswick",-64.8667,46.6333,human settlement
211,Q602112,item,Courtes,5.1002777777778,46.459166666667,"commune in Ain, France"
212,Q602145,item,Kathleen,-82.026388888889,28.121388888889,"census designated place in Polk County, Florida, United States"
213,Q602169,item,Sierra de los Filabres,-2.54611111,37.22361111,mountain
214,Q602200,item,Cotton Tree,-13.23555556,8.48722222,"Historically important kapok tree and landmark in Freetown, Sierra Leone"
215,Q602301,item,Keystone Heights,-82.033055555556,29.787222222222,"city in Clay County, Florida, United States"
216,Q602308,item,Courbillac,-0.18055555555556,45.767777777778,"commune in Charente, France"
217,Q602315,item,Synevyr,23.614444444444,48.496666666667,"village in Mizhhirya Raion, Zakarpattia Oblast, Ukraine"
218,Q602426,item,Ouazzane,-5.6,34.8,City in Morocco
219,Q602529,item,Landresse,6.4694444444444,47.257222222222,"commune in Doubs, France"
220,Q602538,item,Ithome,21.925,37.186111111111,mountain
221,Q602564,item,Thurii,16.47111111,39.695,"city of Magna Graecia, situated on the Tarentine gulf"
222,Q602588,item,"Orehovec, Novi Marof",16.377,46.184,human settlement
223,Q602671,item,Fisolo,12.29087,45.36306,island
224,Q602796,item,Váhovce,17.78027778,48.25138889,municipality of Slovakia
225,Q602801,item,Polom,16.306715918332,50.058971372718,village in Rychnov nad Kněžnou District of Hradec Králové region
226,Q602937,item,Bora-Bora,-151.75,-16.481944444444,"commune in Polynésie française, France"
227,Q602945,item,Masyaf Castle,36.34329,35.06624,castle in Syria
228,Q602969,item,Sinaballaj,19.69833333,41.06888889,village and former municipality of Albania
229,Q603027,item,River Esk,-0.612222,54.4925,"river in North Yorkshire, England"
230,Q603086,item,Guichón,-57.2,-32.35,"locality in Paysandu, Uruguay"
231,Q603125,item,Roman Catholic Diocese of Le Mans,0.1988888888888889,48.009166666666665,diocese of the Catholic Church
232,Q603249,item,Klimavičy,31.95,53.616666666667,city in Belarus
233,Q603450,item,Gordon,-102.20388888889,42.806944444444,city in Sheridan County in the state of Nebraska
234,Q603471,item,"Sayan, Ubud, Gianyar",115.2442,-8.5081,"village in Gianyar, Bali Province, Indonesia"
235,Q603503,item,Sloup v Čechách,14.588919002759,50.73900404585,village in Česká Lípa District of Liberec region
236,Q603506,item,Bystřice,17.26840496,49.59285382,river in Czechia
237,Q603565,item,Újszász,20.083333333333,47.3,town in Hungary
238,Q603592,item,Punta Alta,-62.075,-38.88,"city in Buenos Aires Province, Argentina"
239,Q603616,item,Maybole,-4.68149,55.3545,"town (burgh) in South Ayrshire, Scotland, UK"
240,Q603622,item,Kazan Kremlin,49.106998,55.796759,historic citadel in Tatarstan
241,Q603704,item,Kayalpattinam,78.116388888889,8.5663888888889,human settlement
242,Q603723,item,Doolittle,-91.8858,37.9417,"city in Phelps County, Missouri, United States"
243,Q603771,item,Emirate of Crete,24.893333,35.309722,a Muslim state that existed on the Mediterranean island of Crete from the late 820s to the reconquest of the island by the Byzantine Empire in 961
244,Q603807,item,Gorno Kratovo,22.2081,42.0928,village in Macedonia
245,Q603824,item,Ngebuked,134.63333333333,7.6333333333333,human settlement
246,Q603860,item,Operation Upshot-Knothole,-116.05,37.1167,series of 1950s US nuclear tests
247,Q603881,item,Roman Catholic Diocese of Agartala,91.2792692,23.872982,diocese of the Catholic Church
248,Q603898,item,Shire of Boddington,116.471,-32.802,local government area in Western Australia
249,Q603938,item,Roman Catholic Diocese of Dibrugarh,94.9206,27.4793,diocese of the Catholic Church
250,Q603939,item,Museo Storico dei Bersaglieri,12.50111111,41.90916667,museum in Italy
251,Q603956,item,Ben Lawers,-4.2208333333333,56.545555555556,"1214m high mountain in Perth and Kinross, Scotland, UK"
252,Q604030,item,Skellefteå Kraft Arena,20.967222222222,64.761388888889,"indoor ice hockey rink in Skellefteå, Sweden"
253,Q604040,item,Château Aselmeyer,14.23281,40.838739,"building in Naples, Italy"
254,Q604057,item,Hooper,-105.877,37.7458,"human settlement in Alamosa County, Colorado, United States of America"
255,Q604065,item,Barx,-0.300133,39.0133708,municipality of Spain
256,Q604090,item,Brodheadsville,-75.4017027,40.9267547,census designated place in Pennsylvania
257,Q604093,item,Ławeczko Nowe,21.8167,51.35,village of Poland
258,Q604127,item,Sainte-Pôle,6.8244444444444,48.51,"commune in Meurthe-et-Moselle, France"
259,Q604141,item,Puget Sound,-122.435,47.8331,sound along the northwestern coast of the U.S. state of Washington
260,Q604247,item,Liberty Township,-80.126388888889,41.133333333333,"town in Mercer County, Pennsylvania, United States"
261,Q604264,item,Wyoming Valley,-75.906,41.251,"metropolitan area in Pennsylvania, United States"
262,Q604265,item,VA-11,-4.6420888888889,41.597113888889,road
263,Q604277,item,Askartza,-2.612222,42.841389,locality
264,Q604283,item,Coffs Harbour,153.118896,-30.30228,"city in New South Wales, Australia"
265,Q604316,item,Piechcin,18.03972,52.82028,village of Poland
266,Q604335,item,Basaseachic Falls,-108.25,28.133333333333,"waterfall in Chihuahua, Mexico"
267,Q604341,item,Elorriaga,-2.641111,42.850278,human settlement
268,Q604386,item,"Komaszówka, Gmina Sztabin",23.19055556,53.73833333,village of Poland
269,Q604390,item,Mazerny,4.6133333333333,49.609722222222,"commune in Ardennes, France"
270,Q604405,item,Ubaye,6.9458,44.6386,river in France
271,Q604417,item,Battle of Seminara,16.0,38.316666666667,battle in 1502
272,Q604470,item,Shandong University,117.05398333333,36.671844444444,university in China
273,Q604509,item,Saudi Aramco Beach,50.089166666667,26.126944444444,human settlement
274,Q604519,item,KMRB,-118.082,34.1189,radio station
275,Q604528,item,La Chapelle-Forainvilliers,1.5016666666667,48.728611111111,"commune in Eure-et-Loir, France"
276,Q604540,item,Roman Catholic Diocese of Tiruchirapalli,78.69165,10.804675,diocese of the Catholic Church
277,Q604576,item,Azna,49.455,33.453888888889,"city in Lorestan Province, Iran"
278,Q604594,item,"Grabek, Greater Poland Voivodeship",18.26083333,51.95583333,village of Poland
279,Q604604,item,Kluane / Wrangell – St. Elias / Glacier Bay / Tatshenshini-Alsek,-140.992,61.1975,"international park system in British Columbia, Canada, and Alaska, USA; a UNESCO World Heritage site"
280,Q604628,item,Culdaff,-7.1675,55.287222222222,human settlement
281,Q604717,item,Saint-Germain-des-Prés,2.334444,48.853889,"administrative quarter in Paris, France"
282,Q604789,item,Kłodnia,17.85638889,53.79138889,village of Poland
283,Q604810,item,Markina-Xemein,-2.4963888888889,43.268888888889,municipality of Spain
284,Q604897,item,Battle of Dien Bien Phu,103.01555555556,21.386944444444,decisive Viet Minh victory over the French near the end of the First Indochina War
285,Q604929,item,Garpan,81.74,28.63,geographical object
286,Q604931,item,,16.389,46.184,human settlement
287,Q604953,item,Festetics Palace,17.2417,46.7706,palace in Hungary
288,Q604962,item,Arbigny-sous-Varennes,5.6127777777778,47.859166666667,"commune in Haute-Marne, France"
289,Q604985,item,Hurez,22.914571,47.06551,"village in Sălaj County, Romania"
290,Q605000,item,North Caucasian Soviet Republic,43.066667,44.05,
291,Q605001,item,Svaneke,15.1422,55.1361,town
292,Q605033,item,Miandoab,46.10961,36.96667,"city in West Azerbaijan Province, Iran"
293,Q605039,item,Berméricourt,3.9922222222222,49.357777777778,"commune in Marne, France"
294,Q605091,item,Donald C. Cook Nuclear Generating Station,-86.5659,41.9754,"Nuclear power plant in Berrian County, Michigan"
295,Q605122,item,Schuylkill River,-76.180277777778,40.633611111111,"river in eastern Pennsylvania, United States"
296,Q605133,item,Heřmanovice,17.397835649346,50.193300810236,village in Bruntál District of Moravian Silesian region
297,Q605134,item,Kitashitara district,137.65,35.133333333333,"district in Aichi prefecture, Japan"
298,Q605157,item,Babol,52.683333333333,36.55,"city in Mazandaran Province, Iran"
299,Q605167,item,Potchefstroom,27.103333333333,-26.715,city in the North West Province of South Africa
300,Q605185,item,Blue Grotto,14.205419,40.56102,"sea cave on the coast of Capri, Italy"
301,Q605198,item,KDSN-FM,-95.3289,42.0361,radio station
302,Q605202,item,,15.6824171,38.1988159,"human settlement in Reggio Calabria, Italy"
303,Q605208,item,Český Krumlov District,14.315,48.810833333333,district of Czechia
304,Q605220,item,Sharonville,-84.413333333333,39.268055555556,"city in Hamilton County, Ohio, United States"
305,Q605235,item,Goulburn,149.71861111111,-34.754722222222,"city in New South Wales, Australia"
306,Q605256,item,Shimada,138.17611111111,34.836388888889,"city in Shizuoka Prefecture, Japan"
307,Q605267,item,Geraldton,114.61444444444,-28.779166666667,city in Western Australia
308,Q605270,item,Povedilla,-2.6036244,38.7002967,municipality of Spain
309,Q605303,item,Praça de Espanha,-9.15944,38.73778,metro station
310,Q605323,item,South Kaibab Trail,-112.083,36.0529,Grand Canyon hiking trail
311,Q605334,item,,16.1344,45.7903,human settlement
312,Q605343,item,Xagħra,14.2675,36.050277777778,town on the island of Gozo in Malta
313,Q605348,item,Scout Key,-81.310887,24.649855,"island in the Florida Keys, United States"
314,Q605363,item,Savuto,16.0993,39.032,river in Italy
315,Q605387,item,Silvercreek Township,-96.844722222222,42.578888888889,"township in Dixon County, Nebraska"
316,Q605399,item,Glanum Dam,4.82891667,43.77130556,Roman arch dam built to supply water to the Roman town of Glanum
317,Q605432,item,Guadaíra railway station,-5.947222,37.358333,"metro station in Seville, Spain"
318,Q605495,item,49th Street,-73.9838,40.7604,New York City BMT Broadway Line subway station
319,Q605538,item,Sunbilla,-1.6683333333333,43.164444444444,municipality of Spain
320,Q605646,item,Jonava railway station,24.275822,55.093175,railway station
321,Q605676,item,Mervalla stone,17.189555555556,59.382,"runestone in Strängnäs municipality, Sweden"
322,Q605706,item,Gondomar (São Cosme),-8.5372222222222,41.137777777778,locality and former civil parish in Portugal
323,Q605722,item,Gare de Chépy-Valines,1.635833,50.068056,railway station
324,Q605723,item,Whitechapel station,-0.061111,51.519444,London Underground and London Overground station
325,Q605733,item,Whitefield Township,-95.071111111111,45.027777777778,"township in Kandiyohi County, Minnesota, United States"
326,Q605764,item,USS Gambier Bay,126.15,11.767,Casablanca-class escort carrier
327,Q605767,item,Bukivtsovo,22.671111111111,48.823611111111,"village in Velykyi Bereznyi Raion, Zakarpattia Oblast, Ukraine"
328,Q605771,item,Portal,-81.9317,32.5372,"human settlement in Bulloch County, Georgia, United States of America"
329,Q605787,item,Tete Province,32.5,-15.5,province of Mozambique
330,Q605800,item,Herrengosserstedt,11.478055555556,51.142222222222,human settlement
331,Q605825,item,Voronezh State University of Forestry and Technologies,39.2213,51.7185,university
332,Q605877,item,Villanueva del Rebollar de la Sierra,-1.0091947,40.8914413,municipality of Spain
333,Q605897,item,Valley of Flowers National Park,79.6175,30.73,"national park in Uttarakhand, India"
334,Q606107,item,Tourny,1.5455555555556,49.184166666667,"former commune in Eure, France"
335,Q606130,item,Gouina Falls,-11.1025,14.015,waterfall on the Sénégal River in Mali
336,Q606137,item,"Sarnowo, Pomeranian Voivodeship",18.2,54.36972222,village of Poland
337,Q606165,item,Fériana,8.5625,34.943055555556,Tunisian town
338,Q606176,item,Lambha,72.576119444444,22.938219444444,"village in Gujarat, India"
339,Q606186,item,North Lauderdale,-80.224444444444,26.215833333333,"city in Florida, United States"
340,Q606212,item,Fremantle,115.74762537009292,-32.054229516382605,port city in Western Australia
341,Q606235,item,Voinești,25.245,45.080277777778,"commune in Dâmbovița County, Romania"
342,Q606240,item,Rojales,-0.72361111111111,38.088611111111,municipality of Spain
343,Q606334,item,Oscar Fredrik Church,11.9475,57.696666666667,"Church of Sweden church building in Olivedal in Gothenburg, Sweden"
344,Q606406,item,Jan Palach Square,14.41472,50.08889,square in Prague
345,Q606487,item,,10.8913,49.8921,
346,Q606561,item,Mosul Dam,42.823055555556,36.630277777778,dam in Iraq
347,Q606613,item,Łętów,21.7333,51.9333,village of Poland
348,Q606674,item,Bolívar,-2.614167,42.810278,"village in Álava, Basque Country, Spain"
349,Q606769,item,Hecates Tholus,150.24,32.12,tholus on Mars
350,Q606772,item,Saint-Romain,3.8952777777778,45.489722222222,"commune in Puy-de-Dôme, France"
351,Q606788,item,Azowlissè,2.5075,6.69438,arrondissement of Benin
352,Q606803,item,Arena da Baixada,-49.276944,-25.448333,stadium
353,Q606806,item,SS Race and Settlement Main Office,13.3825,52.5072,organization in Nazi Germany
354,Q606937,item,Dnipro Raion,30.523333333333,50.45,"urban district in Kyiv Municipality, Ukraine"
355,Q606965,item,Steinbruchstraße 12 (Oerlinghausen),8.67554,51.9594,architectural structure
356,Q606997,item,"Antoniuskirche, Graz",15.4396,47.0748,church
357,Q606999,item,,12.8751,46.6769,church
358,Q607045,item,Agumbe,75.0959,13.5087,village
359,Q607078,item,Cerro Negro,-86.702,12.506,mountain
360,Q607082,item,North Kesteven,-0.5,53.15,"non-metropolitan district in East Midlands, England"
361,Q607108,item,Baldwin,-73.6125,40.6702,"census designated place in New York, United States"
362,Q607115,item,"Okręglica, Świętokrzyskie Voivodeship",21.39472222,50.88,village of Poland
363,Q607120,item,Aberdeen,-79.42948,35.13155,"town in Moore County, North Carolina, United States"
364,Q607127,item,Suðureyri,-23.533333333333,66.116666666667,human settlement
365,Q607155,item,Kvasovo,22.770277777778,48.186388888889,"village in Berehove Raion, Zakarpattia Oblast, Ukraine"
366,Q607182,item,Pont-à-Celles,4.35,50.5,"municipality in Wallonia, Belgium"
367,Q607184,item,Araquari,-48.721944444444,-26.37,human settlement in Brazil
368,Q607207,item,"Janinów, Tomaszów Mazowiecki County",19.82361111,51.6425,village of Poland
369,Q607254,item,Villelaure,5.4338888888889,43.710555555556,"commune in Vaucluse, France"
370,Q607331,item,Universidad de San Carlos de Guatemala,-90.5529,14.5829,university
371,Q607333,item,Bangarmau,80.22,26.9,human settlement
372,Q607334,item,Seil,-5.62,56.3,"island on the east side of the Firth of Lorn, Argyll and Bute, Scotland, UK"
373,Q607379,item,Windsor,-72.025833333333,43.1425,"town in Hillsborough County, New Hampshire, United States"
374,Q607420,item,Woodbury,-73.209444444444,41.561944444444,"town in Litchfield County, Connecticut, United States"
375,Q607467,item,Aldea del Fresno,-4.2030555555556,40.323888888889,municipality of Spain
376,Q607545,item,Bozieș,24.191655,47.03237,"village in Bistrița-Năsăud County, Romania"
377,Q607559,item,Bramall Hall,-2.1665833333333335,53.374027777777776,"Tudor manor house in Bramhall, within the Metropolitan Borough of Stockport, Greater Manchester, England"
378,Q607574,item,Sokule,22.960555555556,51.998055555556,"railway station in Gmina Drelów, Poland"
379,Q607592,item,Csabdi,18.610161111111,47.523019444444,village in Hungary
380,Q607602,item,Otjikoto Lake,17.5497222,-19.1947222,lake in Namibia
381,Q607614,item,Gemünd,6.49987,50.5719,"borough of Schleiden, Germany"
382,Q607655,item,Žiljci,21.0128,43.3789,human settlement
383,Q607954,item,Bias halt,-7.77775,37.0422,railway halt in Portugal
384,Q608020,item,Günthersdorf,12.166666666667,51.35,human settlement
385,Q608031,item,Don-Sainghin,2.914283,50.551857,railway station
386,Q608046,item,Grabarze,18.77972222,51.06416667,village of Poland
387,Q608059,item,Tabuleiro,-43.247777777778,-21.358888888889,municipality in Brazil
388,Q608072,item,Kleinschwabhausen,11.461666666667,50.931666666667,municipality of Germany
389,Q608095,item,Kaunos,28.623056,36.825278,human settlement
390,Q608120,item,Shelbyville,-85.7764,39.5219,city in Indiana
391,Q608181,item,Tiruvallur,79.916666666667,13.15,city
392,Q608315,item,Yarriabini National Park,152.95,-30.79,national park in Australia
393,Q608317,item,Wigmore,-2.8612,52.3164,"a village located in Herefordshire, United Kingdom"
394,Q608320,item,Santo Niño,124.4492,11.9263,municipality of the Philippines in the province of Samar
395,Q608330,item,Chankiv,26.78,48.89,village
396,Q608343,item,Fântânele,26.383333333333,45.0,"commune in Prahova County, Romania"
397,Q608376,item,Błonie,20.616666666667,52.2,city of Poland
398,Q608432,item,Jazbina,14.915119,46.465219,human settlement in Slovenia
399,Q608433,item,Seceani,21.317388,45.977104,"village in Timiș County, Romania"
400,Q608438,item,Battle of Cannae,16.15166667,41.29638889,battle during the Norman conquest of Italy
401,Q608458,item,Žemliare,18.6,48.15,municipality of Slovakia
402,Q608626,item,"Obrytki, Grajewo County",22.25,53.516666666667,village of Poland
403,Q608787,item,Koca Mustafa Pasha Mosque,28.9286,41.0034,mosque in Turkey
404,Q608855,item,Kemeten,16.152777777778,47.249722222222,"municipality in Oberwart District, Burgenland, Austria"
405,Q608948,item,Pordeanu,20.403572,46.15002,"village in Timiș County, Romania"
406,Q608977,item,Friedberg,16.058055555556,47.441388888889,"municipality in Hartberg-Fürstenfeld District, Styria, Austria"
407,Q609005,item,Écouflant,-0.53111111111111,47.529444444444,"commune in Maine-et-Loire, France"
408,Q609023,item,Port of Benicarló,0.43388888888889,40.414444444444,
409,Q609040,item,Nagybárkány,19.70376,47.99726,village in Hungary
410,Q609044,item,Caracal,24.333333333333,44.1,"city in Olt County, Romania"
411,Q609109,item,Canons Ashby,-1.1559,52.148,"village and civil parish in Northamptonshire, United Kingdom"
412,Q609113,item,Tsaratsovo,24.687504,42.202711,village of Bulgaria
413,Q609133,item,Jalalkuduk District,72.38333334,40.71666668,district of Uzbekistan
414,Q609140,item,Keangnam Hanoi Landmark Tower,105.78405278,21.01732222,"Skyscraper in Hanoi, Vietnam"
415,Q609214,item,Antrim,-6.21,54.727,former local government district in Northern Ireland
416,Q609323,item,Katwijk,5.87146,51.75,human settlement
417,Q609368,item,Ķürgontepa,72.766666666667,40.733333333333,human settlement
418,Q609389,item,"Groble, Lower Silesian Voivodeship",15.816388888889,51.295277777778,village of Poland
419,Q609427,item,Rakusaiguchi Station,135.70309167,34.96408611,"railway station in Kyoto, Kyoto prefecture, Japan"
420,Q609444,item,Shell Rock Township,-96.014166666667,38.105555555556,township of Kansas
421,Q609519,item,San Luis La Herradura,-88.954444444444,13.351944444444,municipality of El Salvador
422,Q609540,item,Antsla River,26.62886,57.8735,river in Estonia
423,Q609632,item,"Tungsten, Northwest Territories",-128.203,61.9569,human settlement
424,Q609648,item,Neto River,17.14803,39.2057438,river in Italy
425,Q609690,item,Espéraza,2.2205555555556,42.935277777778,"commune in Aude, France"
426,Q609706,item,"Probostwo, Kuyavian-Pomeranian Voivodeship",17.7731,52.8061,village of Poland
427,Q609734,item,Girst,6.5,49.766666666667,human settlement in Luxembourg
428,Q609741,item,Quiloño,-5.96567957,43.55673101,"parish (parroquia) in Castrillón, Asturias, Spain"
429,Q609768,item,Cold Spring Harbor Laboratory,-73.467222,40.861944,"private, non-profit research institution in New York, United States"
430,Q609774,item,Rolleston on Dove,-1.6525361111111,52.844497222222,"a village located in East Staffordshire, United Kingdom"
431,Q609780,item,Casas de los Pinos,-2.3716666666667,39.333888888889,municipality of Spain
432,Q609820,item,"Historic Market Place, Hildesheim",9.9517,52.1528,"square in the city of Hildesheim in Lower Saxony, Germany"
433,Q609824,item,Belterra,-54.936944444444,-2.6358333333333,"municipality of the state of Pará, Brazil"
434,Q609848,item,Kanker,81.50083,20.26778,human settlement
435,Q609876,item,Strand,15.4495,68.6972,"village in Sortland, Norway"
436,Q609909,item,Libavské Údolí,12.552561620404,50.128985808037,village in Sokolov District of Karlovy Vary region
437,Q609920,item,Ossineke Township,-83.7267,44.9164,township of Michigan
438,Q609922,item,Anttola,27.65,61.58333333,"former municipality of Finland, now part of Mikkeli"
439,Q610077,item,Jabłoń-Zambrowizna,22.6489,52.9119,village of Poland
440,Q610087,item,Bombardment of Almería,-2.45,36.8333,bombardment
441,Q610165,item,Antweiler,6.74694,50.6064,human settlement in Germany
442,Q610193,item,"Embassy of France, Mexico City",-99.199444,19.428056,
443,Q610205,item,Bottenhorn,8.4797222222222,50.7925,human settlement in Germany
444,Q610245,item,Puylaroque,1.6108333333333,44.250833333333,"commune in Tarn-et-Garonne, France"
445,Q610259,item,Hanzak,51.67611111,35.84222222,human settlement
446,Q610280,item,Farkaslyuk,20.311880555556,48.186511111111,village in Hungary
447,Q610285,item,Colney Heath,-0.2564,51.735269444444,"village and civil parish in St Albans, Hertfordshire, UK"
448,Q610299,item,Murray Shire,144.9,-35.816666666667,"former local government area in New South Wales, Australia"
449,Q610306,item,Lisiec Mały,18.25,52.1333,village of Poland
450,Q610371,item,Augusta Raurica,7.72229,47.53319,"archaeological site and former Roman colony town on the southern bank of the Rhine near Augst in the canton of Basel-Land, Switzerland"
451,Q610381,item,Heisterschoß,7.3177555555556,50.805347222222,human settlement
452,Q610415,item,Pabneukirchen,14.816944444444,48.316944444444,"municipality in Perg District, Upper Austria, Austria"
453,Q610420,item,Policastro Bussentino,15.522113027852736,40.073690763300036,frazione of Italy
454,Q610514,item,Ferlach,14.301944444444,46.526944444444,"municipality in Klagenfurt-Land District, Carinthia, Austria"
455,Q610565,item,Alain,51.80083333,35.80888889,village in Iran
456,Q610589,item,Millis,-71.358333333333,42.1675,town in Norfolk County in the U.S. state of Massachusetts
457,Q610712,item,Coursan-en-Othe,3.8388888888889,48.071666666667,"commune in Aube, France"
458,Q610731,item,Pontcharra-sur-Turdine,4.49,45.874166666667,"commune in Rhône, France"
459,Q610746,item,Vasalemma River,24.57163,59.16727,river in Estonia
460,Q610792,item,Novés,-4.2705555555556,40.048333333333,municipality of Spain
461,Q610796,item,Fort Zoutman,-70.035627,12.517803,"18th century fortification and museum in Oranjestad, Aruba"
462,Q610804,item,,17.869,45.349,human settlement
463,Q610874,item,Avellanosa de Muñó,-3.8244444444444,41.983611111111,municipality of Spain
464,Q610895,item,Hajjiabad,51.53472222,35.87722222,"village in Rudbar-e Qasran District, Shemiranat County, Tehran Province, Iran"
465,Q610917,item,Nowa Dęba,21.766666666667,50.433333333333,city of Poland
466,Q610924,item,Mirador metro station,-70.605925,-33.513417,"metro station in Santiago, Chile"
467,Q610930,item,Elma,-123.40638888889,47.005555555556,"city in Grays Harbor County, Washington, United States"
468,Q610934,item,Kond Olya,51.65388889,35.87305556,human settlement
469,Q610955,item,Valley of Narcissi,23.34972222,48.17833333,geographical object
470,Q610961,item,Mexico City Metropolitan Cathedral,-99.1330824,19.4343942,cathedral in Mexico City
471,Q611197,item,Les Cassés,1.8677777777778,43.426111111111,"commune in Aude, France"
472,Q611199,item,Pinos Puente,-3.7494444444444,37.251666666667,municipality of Spain
473,Q611268,item,Ferrières-lès-Scey,6.0047222222222,47.655833333333,"commune in Haute-Saône, France"
474,Q611286,item,Nowa Wieś Kącka,16.7319,51.0239,village of Poland
475,Q611294,item,Warwick,-1.5435,52.2894,"local government district in Warwickshire, England"
476,Q611318,item,Medma,15.99055556,38.4825,archaeological site in Italy
477,Q611326,item,Mesnard-la-Barotière,-1.0997222222222,46.859166666667,"commune in Vendée, France"
478,Q611338,item,Gackle,-99.143333333333,46.627222222222,"town in Logan County, North Dakota, United States"
479,Q611379,item,San Gregorio,12.55,43.13805556,frazione of Italy
480,Q611388,item,Huallaga River,-75.748055555556,-5.2258333333333,river in Peru
481,Q611390,item,Fortune Playhouse,-0.0938889,51.5228,theatre in Elizabethan London
482,Q611412,item,Garcibuey,-5.9833333333333,40.516666666667,"village in Salamanca, Spain"
483,Q611417,item,Myzeqe,19.662222222222,40.9175,Coastal plain of Albania
484,Q611435,item,"Liszna, Lesko County",22.306944444444444,49.19444444444444,village of Poland
485,Q611478,item,"Yiyang County, Jiangxi",117.431,28.4028,county
486,Q611578,item,Giuluș,24.311143,46.401262,"village in Mureș County, Romania"
487,Q611635,item,Purzand-e Sofla,51.79361111,35.78333333,human settlement
488,Q611661,item,Căprioara,22.277553,45.982372,"village in Arad County, Romania"
489,Q611685,item,Kozí kameň,20.160833333333,49.016111111111,mountain in Slovakia
490,Q611773,item,Marentes,-6.89937867,43.08086455,"parish (parroquia) in Ibias, Asturias, Spain"
491,Q611783,item,Funing County,119.7906,33.78655,county
492,Q611839,item,Szárazd,18.42579,46.57484,village in Hungary
493,Q611841,item,Easington,-1.352,54.79,"Parliamentary constituency in the United Kingdom, 1950 onwards"
494,Q611934,item,HSC Csíkszereda,25.8002778,46.3580556,ice hockey team
495,Q611942,item,Druzhba,27.966111111111,51.186111111111,human settlement
496,Q611949,item,Guillermo León Valencia Airport,-76.609166666667,2.4541666666667,colombian airport in Popayan in the departamento of Cauca
497,Q611964,item,Suez Canal Bridge,32.317722222222,30.828144444444,road bridge crossing the Suez Canal at El Qantara
498,Q612001,item,"Gospodarz, Łódź Voivodeship",19.45,51.65,village of Poland
499,Q612055,item,Saint-Nazaire-les-Eymes,5.8533333333333,45.249444444444,"commune in Isère, France"
500,Q612136,item,Xia County,111.2158,35.13922,county
501,Q612137,item,Mayak,60.7798,55.6999,nuclear facility in the Russian Federation
502,Q612175,item,Žrnovnica,16.559,43.521,human settlement
503,Q612187,item,Cheshire,-73.163333333333,42.561944444444,town in Massachusetts
504,Q612188,item,Lufrei,-8.0539444444444,41.276388888889,civil parish in Amarante
505,Q612191,item,Garopaba,-48.612777777778,-28.022777777778,municipality of Brazil
506,Q612201,item,Milton,-70.988333333333,43.409722222222,"town in Strafford County, New Hampshire, United States of America"
507,Q612248,item,Anubieion,31.223926,29.87606,
508,Q612253,item,Sagami River,138.85222222222,35.428333333333,"river in Yamanashi and Kanagawa Prefectures, Japan"
509,Q612319,item,Ciureni,23.538436,47.202423,"village in Sălaj County, Romania"
510,Q612328,item,Balrampur,82.1854602,27.4295126,city
511,Q612340,item,One Bloor East,-79.3862,43.67,"skyscraper in Toronto, Ontario, Canada"
512,Q612376,item,"Neves, São Tomé and Príncipe",6.5516666666667,0.35916666666667,town in São Tomé and Príncipe
513,Q612380,item,Canal des houillères de la Sarre,6.90972222,48.70027778,canal
514,Q612383,item,Rottige Meenthe & Brandemeer,5.90417,52.84028,natural landscape
515,Q612399,item,Hunya,20.85,46.816666666667,village in Hungary
516,Q612467,item,"Obrež, Varvarin",21.3472,43.7689,village
517,Q612495,item,Osula,26.827777777778,57.883333333333,"village in Võru Rural Municipality, Võru County, Estonia"
518,Q612530,item,John and Mable Ringling Museum of Art,-82.5591,27.3814,"art museum in Sarasota, Florida"
519,Q612533,item,,26.323628,46.256092,mountain in Romania
520,Q612580,item,Hamdijk,7.170556,53.161667,village in the Netherlands
521,Q612646,item,Veselí nad Lužnicí,14.697355580068,49.184368900539,town in the Czech Republic
522,Q612652,item,Garsey,-70.481666666667,41.648333333333,town in Kenya's Mandera County
523,Q612713,item,N'Délé,20.653055555556,8.4063888888889,market town in the Central African Republic
524,Q612723,item,Bellavilliers,0.4975,48.423333333333,"commune in Orne, France"
525,Q612736,item,Lumen Field,-122.33166666667,47.595277777778,"multi-purpose stadium in Seattle, Washington, United States"
526,Q612755,item,Erick,-99.869722222222,35.213611111111,"city in Oklahoma, USA"
527,Q612774,item,Kunsthalle Bern,7.44939,46.94428,"museum in the city of Bern, Switzerland"
528,Q612777,item,Les Mayons,6.3580555555556,43.312777777778,"commune in Var, France"
529,Q612813,item,canton of Villebrumier,1.44814814815,43.9281481482,canton of France (until March 2015)
530,Q612821,item,Ko Phi Phi Le,98.766111111111,7.6830555555556,island in the Andaman Sea
531,Q612826,item,Villaharta,-4.9030997,38.1396901,municipality of Spain
532,Q612854,item,La Ribera,2.18389,41.38444,"neighborhood of Barcelona, Spain"
533,Q612946,item,Budy-Gole,19.020291666667,52.299733333333,village of Poland
534,Q612965,item,Anvers Island,-63.5,-64.6,"high, mountainous island 61 km (38 miles) long, outside Antarctica"
535,Q613009,item,Castra of Brâncovenești,24.76859,46.86184,Roman fort in Dacia
536,Q613037,item,Temple of Edfu,32.873333333333,24.977777777778,"ancient Egyptian temple, located on the west bank of the Nile in Edfu, Upper Egypt"
537,Q613090,item,Lapuente,-54.96305556,-31.46944444,human settlement
538,Q613130,item,Benderloch,-5.40361,56.4922,"village in Argyll and Bute, Scotland, UK"
539,Q613152,item,Malaincourt,5.7625,48.219722222222,"commune in Vosges, France"
540,Q613190,item,Hudson Bay,-79.225,56.54277778,
541,Q613246,item,Barawa,44.030277777778,1.1133333333333,village in Somalia
542,Q613251,item,Band-e Amir,67.230833333333,34.839722222222,lake in Afghanistan
543,Q613307,item,,20.0975,54.873,"human settlement in Zelenogradsky District, Kaliningrad Oblast, Russia"
544,Q613324,item,Hiratsuka-juku,139.337806,35.327278,"station of the Tōkaidō, Japan"
545,Q613377,item,Linden,7.1605555555556,51.425555555556,"quarter of Bochum, Germany"
546,Q613386,item,Beru,175.9775,-1.2936111111111,island of Kiribati
547,Q613432,item,Granville rail disaster,151.0102,-33.8316,Australian most-deadly rail disaster
548,Q613448,item,Plivot,4.0702777777778,49.017777777778,"commune in Marne, France"
549,Q613484,item,,16.03877,49.30542194,castle
550,Q613501,item,Faradonbeh,51.212222222222,32.008333333333,"city in Chaharmahal and Bakhtiari Province, Iran"
551,Q613508,item,Vokhma,46.313355,59.507297,"river in Kostroma Oblast, Russia"
552,Q613509,item,Port-Mort,1.4066666666667,49.168888888889,"commune in Eure, France"
553,Q613522,item,Clutha River / Mata-Au,169.1583,-44.6649,river in New Zealand
554,Q613529,item,Tlalixtaquilla,-98.466666666667,17.516666666667,city in Mexico
555,Q613630,item,Monasterio de la Sierra,-3.1933333333333,42.051111111111,municipality of Spain
556,Q613667,item,Konak (Sarajevo),18.4304901,43.8564732,Ottoman governor's residence in Sarajevo
557,Q613742,item,Hermitage of Santa María de La Piscina,-2.72583333,42.57805556,church
558,Q613765,item,North Marysville,-122.155,48.0967,"census designated place in Snohomish County, Washington, United States"
559,Q613771,item,Gmina Drużbice,19.4,51.466666666667,rural gmina of Poland
560,Q613788,item,St. Nicholas' Church,24.742755555556,59.435922222222,"church in Tallinn, Estonia"
561,Q613795,item,Anyama,-4.0516666666667,5.4944444444444,commune of Ivory Coast
562,Q613847,item,Mossley,-2.0387,53.5147,"town in Tameside, England, United Kingdom"
563,Q613893,item,Hôtel de Ville - Louis Pradel,4.8360222222222,45.767377777778,Lyon Métro station
564,Q613917,item,Anyi County,115.599,28.8389,county
565,Q613929,item,Neustadt/Westerwald,8.0416666666667,50.632777777778,municipality of Germany
566,Q613959,item,Topoľa,22.355833333333,49.044166666667,municipality of Slovakia
567,Q613961,item,canton of Rémuzat,5.38916667,44.40055556,canton of France (until March 2015)
568,Q613989,item,Duiven,6.0211,51.9472,"municipality in Gelderland, the Netherlands"
569,Q614000,item,,33.353055555556,55.343333333333,"human settlement in Safonovsky District, Smolensk Oblast, Russia"
570,Q614005,item,Oberlandesgericht Stuttgart,9.18732,48.777,
571,Q614157,item,Akhtala,44.777284,41.150299,"place in Lori, Armenia"
572,Q614245,item,Bear Creek,-88.726944444444,44.529722222222,"village in Outagamie County, Wisconsin"
573,Q614251,item,Bolano,14.766666666667,40.733333333333,frazione of Italy
574,Q614295,item,Braize,2.6497222222222,46.667222222222,"commune in Allier, France"
575,Q614321,item,Anzeiger-Hochhaus,9.73139,52.3769,"highrise building in Hannover, Germany"
576,Q614327,item,Gmina Leśna Podlaska,23.026111111111,52.134444444444,rural gmina of Poland
577,Q614359,item,Gmina Sławatycze,23.55,51.75,rural gmina of Poland
578,Q614388,item,Marnay-sur-Marne,5.2369444444444,48.010277777778,"commune in Haute-Marne, France"
579,Q614398,item,,13.0016,47.6454,human settlement in Germany
580,Q614427,item,Babice,17.260902773521,49.737840789759,"village in Olomouc District of Olomouc region, Czech Republic"
581,Q614507,item,Memorial Drive,-71.1161,42.3631,"highway in Cambridge, Massachusetts"
582,Q614510,item,Gabii,12.715833333333334,41.88688888888889,City in Italy
583,Q614513,item,Rotalier,5.4769444444444,46.588888888889,"commune in Jura, France"
584,Q614558,item,Nganza,15.311707,-4.318822,It is also the name of a small river which gave the name to that municipality
585,Q614571,item,Saint-Maur,5.59,46.615277777778,"commune in Jura, France"
586,Q614608,item,Reithouse,5.5566666666667,46.559444444444,"commune in Jura, France"
587,Q614612,item,General Toshevo Municipality,28.06666667,43.71666667,municipality of Bulgaria
588,Q614626,item,Timbó Grande,-50.673888888889,-26.615,municipality of Brazil
589,Q614639,item,Montreal International Jazz Festival,-73.56666666666666,45.5,music festival
590,Q614657,item,"Sandala, Ivory Coast",-6.4666666666667,8.1166666666667,commune of Ivory Coast
591,Q614686,item,Mikó Castle,25.80277778,46.35611111,"heritage site in Harghita County, Romania"
592,Q614694,item,Macoviște,22.321886,45.029534,"village in Cornea municipality, Caraș-Severin County, Romania"
593,Q614698,item,Meures,5.0655555555556,48.193055555556,"commune in Haute-Marne, France"
594,Q614773,item,Walyunga National Park,116.09,-31.7061,national park in Australia
595,Q614813,item,Saint-Georges,0.93388888888889,44.441944444444,"commune in Lot-et-Garonne, France"
596,Q614815,item,Quernes,2.3663888888889,50.605,"commune in Pas-de-Calais, France"
597,Q614825,item,Lobzy,12.68527778,50.13472222,village in Sokolov District of Karlovy Vary region
598,Q614935,item,Amsterdam-Churchill,-111.31962,45.7435412,"town in Montana, United States"
599,Q615010,item,Kalamazoo River,-86.21531,42.67669,river in Michigan
600,Q615021,item,Chibi City,113.63333333333,29.883333333333,county-level city of Hubei province
601,Q615055,item,Narol-Wieś,23.31666667,50.36666667,village of Poland
602,Q615056,item,Saint-Genest-sur-Roselle,1.4261111111111,45.703055555556,"commune in Haute-Vienne, France"
603,Q615086,item,Stoetze,10.783333333333,53.066666666667,municipality of Germany
604,Q615088,item,Kaynarca,30.3075,41.030833333333,"district in Sakarya Province, Turkey"
605,Q615136,item,Nederland,-93.9967,29.9731,"city in Texas, United States"
606,Q615183,item,Sensō-ji,139.79663888889,35.714555555556,"Buddhist temple in Tokyo, Japan"
607,Q615205,item,Nagysimonyi,17.06666,47.26221,village in Hungary
608,Q615279,item,Gmina Płaska,23.25,53.9,rural gmina of Poland
609,Q615299,item,Gmina Turośń Kościelna,23.066666666667,53.016666666667,rural gmina of Poland
610,Q615354,item,Foster Township,-93.705555555556,43.630555555556,"township in Faribault County, Minnesota, United States"
611,Q615373,item,"Sanson, Benin",2.43333333,9.28333333,arrondissement of Benin
612,Q615396,item,Saint Anne Round Church in Kallósd,17.06336111,46.87141111,church
613,Q615400,item,"Wysokie, Gmina Wysokie",22.665,50.907778,village of Poland
614,Q615404,item,Anıtkabir,32.83694444444444,39.925,"Atatürk's mausoleum in Ankara, Turkey"
615,Q615412,item,Gmina Bielsk Podlaski,23.2,52.766666666667,rural gmina of Poland
616,Q615427,item,"Krzczonów, Lublin Voivodeship",22.711944,51.006111,village of Poland
617,Q615431,item,Gleźno,15.34972222,53.14583333,village of Poland
618,Q615448,item,Brotte-lès-Luxeuil,6.3477777777778,47.756666666667,"commune in Haute-Saône, France"
619,Q615587,item,Jewish Public Library,-73.6365,45.48906,free Jewish library in Montreal
620,Q615633,item,Guastatoya,-90.068611111111,14.853888888889,"municipality and capital of El Progreso Department, Guatemala"
621,Q615695,item,Gardenview Horticultural Park,-81.8319,41.3128,botanical garden
622,Q615708,item,Petkovec Toplički,16.394,46.19,human settlement
623,Q615758,item,Pécsvárad  District,18.416666666667,46.166666666667,district of Hungary
624,Q615767,item,Aokigahara,138.64,35.47361111111111,"forest near Mount Fuji in Yamanashi Prefecture, Japan"
625,Q615823,item,Soportújar,-3.4052741,36.9280751,municipality of Spain
626,Q615849,item,Hviezdoslavov,17.348055555556,48.0675,municipality of Slovakia
627,Q615922,item,Battle of the Vozha River,39.44416667,54.71666667,middle ages battle
628,Q615933,item,Præstevang Parish,12.31722222,55.93166667,subdivision of the Diocese of Helsingør
629,Q615956,item,Griston,0.8665,52.558,"a village located in Breckland District, United Kingdom"
630,Q616016,item,Newquay railway station,-5.0752888888889,50.4145,railway station
631,Q616129,item,"Agino Selo, Kumanovo",21.6811,42.0464,village in Macedonia
632,Q616140,item,Haines Highway,-135.824833,59.367756,highway in Alaska and Yukon Territory
633,Q616184,item,Hong Kong Central Library,114.18952777778,22.279963888889,public library in Hong Kong
634,Q616210,item,Vista Alegre,-3.739819,40.388808,Madrid Metro station
635,Q616228,item,St. Ignace Township,-84.703055555556,45.9925,township of Michigan
636,Q616271,item,Basilica Julia,12.484722222222,41.892777777778,"building in Roman Forum, Italy"
637,Q616311,item,Ingram,-80.066944444444,40.445277777778,"borough in Allegheny County, Pennsylvania"
638,Q616324,item,Aovere,26.83,58.446388888889,"village in Tartu Rural Municipality, Tartu County, Estonia"
639,Q616334,item,Vyšehrad,14.417644214,50.064427188,historic fort in Prague
640,Q616392,item,Villatobas,-3.3213888888889,39.901111111111,municipality of Spain
641,Q616403,item,Church of Sant'Antonio Abate,14.2651,40.8612,"Ancient church of Naples, located at the beginning of the village of the same name"
642,Q616485,item,Lleiguarda,-6.22609352,43.33034168,"parish (parroquia) in Belmonte de Miranda,  Asturias, Spain"
643,Q616621,item,Escalona,-4.4052777777778,40.170833333333,municipality of Spain
644,Q616650,item,Indaiatuba,-47.218055555556,-23.090277777778,municipality in the state of São Paulo in Brazil
645,Q616785,item,Aceuchal,-6.4830555555556,38.65,"municipality of in the Province of Badajoz, Spain"
646,Q616789,item,Parnes,1.7377777777778,49.203333333333,"commune in Oise, France"
647,Q616797,item,Saint-Denis-des-Coudrais,0.5075,48.150277777778,"commune in Sarthe, France"
648,Q616818,item,Clermont-le-Fort,1.4325,43.458055555556,"commune in Haute-Garonne, France"
649,Q616824,item,Bergues,2.42547,50.9689,railway station
650,Q616833,item,Kirchberg an der Pielach,15.433333333333,48.016666666667,"municipality in Sankt Pölten District, Lower Austria, Austria"
651,Q616845,item,Saint-Martin-sur-Ocre,2.6583333333333,47.659166666667,"commune in Loiret, France"
652,Q616881,item,Venansault,-1.5125,46.686111111111,"commune in Vendée, France"
653,Q616904,item,Sørup Parish,9.78333333,56.88972222,subdivision of the Diocese of Aalborg
654,Q616906,item,Gerli,-58.366666666667,-34.683333333333,human settlement
655,Q616912,item,Jungfrau-Aletsch protected area,8.033333,46.5,World Heritage site in the Switzerland
656,Q616993,item,Parkan-e Al-e Musa,55.606667,27.459444,human settlement
657,Q617047,item,Weissenbach an der Triesting,16.038055555556,47.981666666667,"municipality in Baden District, Lower Austria, Austria"
658,Q617056,item,Deszczno,15.31667,52.66667,village of Poland
659,Q617061,item,"Brok, Podlaskie Voivodeship",22.5841,52.9357,village of Poland
660,Q617069,item,Munda,157.27083333333,-8.3280555555556,human settlement in the Solomon Islands
661,Q617180,item,Rockenberg,8.7355555555556,50.430833333333,"municipality in Wetteraukreis in Hesse, Germany"
662,Q617213,item,Kielce Voivodeship,20.6285,50.8694,
663,Q617233,item,Jarra East,-15.25,13.416666666667,district of the Gambia
664,Q617265,item,CT-32,-0.91711388888889,37.643125,road
665,Q617270,item,Eau d'Heure lakes,4.385556,50.188611,lake
666,Q617328,item,Afaq Khoja Mausoleum,76.02295,39.490765,"building in Kashgar City, China"
667,Q617380,item,Shapuri House,52.53588888888889,29.619055555555555,"mansion in Shiraz, Iranian national heritage site"
668,Q617403,item,Kohurestan Rural District,54.83441667,27.148,rural district of Iran
669,Q617407,item,Eton,-0.6092,51.4881,"Town and civil parish near Windsor, Berkshire, England"
670,Q617453,item,Green Hill Township,-92.9247,37.1044,township of Missouri
671,Q617512,item,Żdżarki,20.5653,51.5764,village of Poland
672,Q617515,item,Frondarola,13.64886,42.62102,"human settlement in Teramo, Province of Teramo, Abruzzo, Italy"
673,Q617589,item,Fărășești,22.386783,45.798769,"village in Timiș County, Romania"
674,Q617608,item,Apango,-99.328055555556,17.741388888889,human settlement
675,Q617764,item,Bazoches-au-Houlme,-0.24055555555556,48.8175,"commune in Orne, France"
676,Q617801,item,Saint George Parish,-61.388333333333,15.301388888889,Dominica
677,Q617818,item,Gmina Świecie nad Osą,19.103055555556,53.444166666667,rural gmina of Poland
678,Q617831,item,Andranolava,44.6833,-22.65,commune in Madagascar
679,Q617832,item,Gmina Radziejów,18.516666666667,52.633333333333,rural gmina of Poland
680,Q617859,item,Pržno,17.942868549304,49.387464988333,village in Vsetín District of Zlín region
681,Q617862,item,Hostomice,13.808129921373,50.587789095553,bourgade in Teplice District
682,Q617864,item,Rocheservière,-1.5091666666667,46.938888888889,"commune in Vendée, France"
683,Q617886,item,"Białki, Siedlce County",22.29194,52.13083,village of Poland
684,Q617892,item,Valle del Zalabí,-3.1005555555556,37.262222222222,municipality of Spain
685,Q617937,item,Rouillac,-0.063333333333333,45.775555555556,"former commune in Charente, France"
686,Q617947,item,Lycée français René Descartes de Phnom Penh,104.91972222,11.575,school
687,Q617987,item,Dhar,75.3,22.6,city
688,Q618028,item,Besidi,23.909444444444,50.171666666667,"village in Zhovkva Raion, Lviv Oblast, Ukraine"
689,Q618042,item,Lónsöræfi,-15.19555556,64.59444444,protected area
690,Q618047,item,Hörselberg,10.416666666667,50.966666666667,village in Germany
691,Q618064,item,Balmer Werder,14.026111111111,53.950277777778,island
692,Q618081,item,Țerova,21.923741,45.308508,"locality in Caraș-Severin County, Romania"
693,Q618152,item,,15.7,45.399,human settlement
694,Q618176,item,Gmina Brzozie,19.6,53.316666666667,rural gmina of Poland
695,Q618181,item,Gmina Osielsko,18.066666666667,53.183333333333,rural gmina of Poland
696,Q618218,item,Aper Tief,7.67778,53.2053,"river in Lower Saxony, Germany"
697,Q618241,item,Apert,6.56083,50.2008,mountain in the German state of Rhineland-Palatinate
698,Q618258,item,National Library of Togo,1.218427,6.129117,national library
699,Q618304,item,Apfelbaum,7.48556,51.0247,human settlement
700,Q618306,item,Apfelbaumer Zug mine,7.95389,50.8153,Iron ore mine in Germany
701,Q618375,item,Turón,-3.0575,36.863611111111,"municipality in the province of Granada‎, Spain"
702,Q618381,item,Trevélez,-3.2669444444444,37.0025,municipality of Spain
703,Q618394,item,Old Town of Lijiang,100.23333333,26.86666667,old town
704,Q618433,item,Gmina Jeziora Wielkie,18.267777777778,52.530277777778,rural gmina of Poland
705,Q618437,item,Gmina Złotniki Kujawskie,18.133333333333,52.9,rural gmina of Poland
706,Q618453,item,Aphidna,23.87916667,38.1875,ancient Athenian deme
707,Q618458,item,,3.338541,39.539909,church
708,Q618495,item,Aphrodisias,28.723611111111,37.708333333333,"Ancient Greek Hellenistic city in Geyre, Aydın, Turkey"
709,Q618524,item,Waterford City Library,-7.119,52.2583,public library
710,Q618556,item,Santa Susana Field Laboratory,-118.696,34.2308,"near Los Angeles, a test facility for rockets and (formerly) nuclear reactors"
711,Q618573,item,Lamu Archipelago,41.020555555556,-2.1033333333333,Kenyan archipelago in the Indian Ocean
712,Q618578,item,Apianus,7.9,-26.9,lunar impact crater
713,Q618609,item,Chapel in honor of the Salvation of Alexander III,30.474139,50.466811,
714,Q618638,item,U-11,18.666666666667,54.316666666667,1935 Type IIB submarine of the German Navy
715,Q618696,item,Marshall Space Flight Center,-86.67397,34.64667,rocketry and spacecraft propulsion research center
716,Q618856,item,Apocalypse Tapestry,-0.56,47.47,tapestry series by  Jan Bondol from Bruges in the Château d'Angers
717,Q618966,item,Apollo-Theater,16.3539,48.1975,"former variety theatre in Vienna, Austria, closed 1928 and converted to the ""Apollo-Kino"" cinema"
718,Q619070,item,New Meadow,-2.74933,52.68863,football stadium
719,Q619164,item,Cracu Mare,22.522716,45.00738,"village in Caraș-Severin County, Romania"
720,Q619193,item,Zmogotin,22.470653,45.096735,"village in Caraș-Severin County, Romania"
721,Q619226,item,Akushinsky District,47.33888889,42.27805556,municipal district in Russia
722,Q619264,item,Castlerock,-6.7833333333333,55.15,"seaside village in County Londonderry, Northern Ireland"
723,Q619361,item,Kostanay District,63.62,53.21,district of Kazakhstan
724,Q619477,item,Temple of Apollo,15.29305556,37.06388889,ancient Greek temple in Syracuse dated ca. 565 BC
725,Q619478,item,Banatski Sokolac,21.083333333333,45.266666666667,"village in Plandište municipality, Serbia"
726,Q619479,item,Temple of Apollo at Aegina,23.42353821,37.75030711,"archaic Doric temple at Kolona, Aigina, Greece"
727,Q619516,item,"Apollo-Saal, Vienna",16.3444,48.1989,
728,Q619519,item,Villanueva de las Torres,-3.0897222222222,37.556666666667,municipality of Spain
729,Q619564,item,Dzhugastra,28.639166666667,48.3425,"village in Kryzhopil Raion, Vinnytsia Oblast, Ukraine"
730,Q619567,item,Gordiyivka,29.3175,48.520555555556,"village in Trostianets Raion, Vinnytsia Oblast, Vinnytsia Oblast, Ukraine"
731,Q619609,item,Cherokee County,-81.62,35.05,"county in South Carolina, United States"
732,Q619646,item,Apopa,-89.183333333333,13.8,human settlement
733,Q619781,item,Imja Tse,86.933333333333,27.916666666667,"mountain in Khumbu, Nepal"
734,Q619819,item,Aberdeen,-106.292,52.3261,"town in Saskatchewan, Canada"
735,Q619829,item,Autonomous Administration of North and East Syria,41.25,37.05,de facto autonomous region in Syria
736,Q619830,item,Selysche,28.3625,49.126666666667,"village in Tyvriv Raion, Vinnytsia Oblast, Ukraine"
737,Q619895,item,Bangok Station,127.994946,37.3230123,railway station
738,Q619913,item,National Library of India,88.333318,22.533206,national library located in Kolkata
739,Q619921,item,Evangelische Apostelkirche Herscheid,7.74453,51.1794,church
740,Q619927,item,Big Bar Heliport,-116.74166666667,45.123861111111,heliport
741,Q619956,item,Big Sand Lake Airport,-99.875277777778,57.619444444444,airport
742,Q619959,item,Big Sandy Regional Airport,-82.636666666667,37.751111111111,airport
743,Q619970,item,Ljubljana Marshes,14.4575,46.00055556,geographical object
744,Q620004,item,Apostolic Administration of Kirghizistan,74.6105,42.8947,apostolic administration
745,Q620005,item,Bharatpur Airport,84.429444444444,27.678055555556,airport in Nepal
746,Q620023,item,Jecheonjochajang Station,128.1767299,37.1278495,Cargo station
747,Q620047,item,Bhadrapur Airport,88.079444444444,26.570555555556,"airport in Bhadrapur, Nepal"
748,Q620071,item,Bethlehem Airport,28.33611111,-28.24861111,airport
749,Q620190,item,Apostolic Exarchate of Istanbul,28.9775,41.0369,apostolic exarchate
750,Q620202,item,Apostolic Exarchate in the Czech Republic,14.415,50.086111111111,apostolic exarchate
751,Q620264,item,Roman Catholic Diocese of Bomadi,5.93333333,5.16666667,diocese of the Catholic Church
752,Q620288,item,Aleje-Zátiší,12.36722222,50.12444444,neighborhood
753,Q620293,item,"Krasnoarmeysky District, Primorsky Krai",135.5,45.75,municipal district in Russia
754,Q620300,item,Bojia,22.41473,45.1065,"village in Caraș-Severin County, Romania"
755,Q620307,item,Roman Catholic Diocese of Francistown,27.5475,-21.1883,Catholic ecclesiastical territory
756,Q620330,item,Apostolic Vicariate of Inírida,-67.925,3.86667,apostolic vicariate
757,Q620332,item,Apostolic Vicariate of Ingwavuma,32.0,-27.1333,apostolic vicariate
758,Q620334,item,Lavon,-96.4383,33.0267,"city in Collin County, Texas, United States of America"
759,Q620369,item,,15.709,45.345,human settlement
760,Q620392,item,Wolin National Park,14.45,53.9333,national park of Poland
761,Q620401,item,Lansdowne River,152.61666666667,-31.866666666667,river in Australia
762,Q620402,item,Apostolic Vicariate of Puerto Maldonado,-69.1833,-12.6,apostolic vicariate
763,Q620428,item,Apostolic Vicariate of San Ramón,-75.35,-11.1167,apostolic vicariate
764,Q620438,item,Vicariate Apostolic of Southern Arabia,54.3855,24.449,Apostolic Vicariate
765,Q620472,item,HMS Royal Oak,-2.9833333333333,58.930833333333,Revenge-class battleship
766,Q620493,item,Tannu-Ola mountains,92.390277777778,51.07,mountain range
767,Q620564,item,Arlberg railway,11.401,47.2633,railway line
768,Q620603,item,Apoyeque,-86.341666666667,12.241666666667,
769,Q620772,item,Ullíbarri Arrazua,-2.593333,42.888333,
770,Q620774,item,Villafranca,-2.56889,42.8378,"human settlement in Vitoria-Gasteiz, Spain"
771,Q620776,item,Otazu,-2.628028,42.831636,locality
772,Q620806,item,Appelscha,6.35,52.9547,human settlement
773,Q620809,item,Palais Royale,72.82027778,18.99916667,"Supertall skyscraper in Mumbai, India"
774,Q620829,item,Anquela del Ducado,-2.1288888888889,40.971666666667,municipality of Spain
775,Q620874,item,Ionia,27.5,38.2,region in Turkey
776,Q620889,item,Appenfeld,9.48062,50.9407,human settlement in Germany
777,Q620909,item,,9.045,50.7464,human settlement in Germany
778,Q620925,item,canton of Betz,2.99300036,49.14808944,canton of France (until March 2015)
779,Q620937,item,Sukhumi District,41.0,43.2,district of Abkhazia
780,Q621000,item,Ochamchira District,41.4461,42.8581,district of Abkhazia
781,Q621059,item,,2.848063,39.826643,church
782,Q621227,item,Apple Creek,-89.73777778,37.5825,town
783,Q621352,item,Apple River Township,-90.137777777778,42.478888888889,"township in Jo Daviess County, Illinois"
784,Q621396,item,Krivaja Vojnićka,15.713,45.323,human settlement
785,Q621398,item,Kupljensko,15.7,45.3,human settlement
786,Q621472,item,Taghazout,-9.709699,30.545597,geographical object
787,Q621483,item,Villmar,8.1919444444444,50.391388888889,"municipality in Landkreis Limburg-Weilburg in Hesse, Germany"
788,Q621487,item,Irbe Strait,22.208333333333,57.8,strait in Estonia and Latvia
789,Q621518,item,Zlagna,22.300154,45.378054,"village in Caraș-Severin County, Romania"
790,Q621549,item,Inglewood,-118.34611111111,33.9575,"city in southwestern Los Angeles County, California, United States"
791,Q621563,item,Appleton Thorn,-2.5441,53.3508,"village in Warrington, Cheshire, UK"
792,Q621667,item,Kapelle hl. Apollonia,12.441,47.0004,church
793,Q621675,item,Namaste Tower,72.823257,18.991499,skyscraper
794,Q621700,item,Algora,-2.6652777777778,40.964166666667,municipality of Spain
795,Q621708,item,Adobes,-1.6786111111111,40.675833333333,municipality of Spain
796,Q621800,item,"Music Academy, Zagreb",15.971948,45.812342,Croatian music school based in Zagreb
797,Q621885,item,Merkula,41.463333333333,42.754166666667,human settlement
798,Q621939,item,Hofbieber,9.83534,50.58629,"municipality in Landkreis Fulda in Hesse, Germany"
799,Q622126,item,Fränkisch-Crumbach,8.8575,49.745833333333,"municipality in Odenwaldkreis in Hesse, Germany"
800,Q622167,item,Greifenstein,8.2430555555556,50.609444444444,"municipality in Lahn-Dill-Kreis in Hesse, Germany"
801,Q622184,item,Battle of Ager Sanguinis,36.719444444444,36.178888888889,"near Sarmada in Syria on June 28, 1119"
802,Q622212,item,Egelsbach,8.6666666666667,49.969444444444,"municipality in Landkreis Offenbach in Hesse, Germany"
803,Q622221,item,Gale,137.81,-5.37,crater on Mars
804,Q622253,item,Breitscheid,8.2,50.683333333333,"municipality in Lahn-Dill-Kreis in Hesse, Germany"
805,Q622391,item,Niddatal,8.8166666666667,50.266666666667,"town in Wetteraukreis in Hesse, Germany"
806,Q622417,item,Saint-Pons-de-Thomières,2.7602777777778,43.488611111111,"commune in Hérault, France"
807,Q622420,item,Oberaula,9.4666666666667,50.85,"municipality in Schwalm-Eder-Kreis in Hesse, Germany"
808,Q622422,item,Mont-Louis,2.12,42.508333333333,"commune in Pyrénées-Orientales, France"
809,Q622449,item,Grünheide (Mark),13.816666666667,52.416666666667,"municipality in Brandenburg state, Germany"
810,Q622452,item,Söhrewald,9.6166666666667,51.216666666667,"municipality in Landkreis Kassel in Hesse, Germany"
811,Q622461,item,Saint-Goazec,-3.7841666666667,48.1625,"commune in Finistère, France"
812,Q622485,item,Plouider,-4.2977777777778,48.608055555556,"commune in Finistère, France"
813,Q622498,item,Winsen an der Aller,9.9094444444444,52.68,municipality of Germany
814,Q622509,item,Ortenberg,9.0552777777778,50.355833333333,"town in Wetteraukreis in Hesse, Germany"
815,Q622609,item,Bakewar,79.18,26.67,human settlement
816,Q622612,item,Bangaon,88.82,23.07,"City in West Bengal, India"
817,Q622616,item,Mount Lu,115.97333333333,29.5725,mountain in central China
818,Q622691,item,Apšuciems,23.30694444,57.06083333,human settlement
819,Q622720,item,Châlus,0.98055555555556,45.655,"commune in Haute-Vienne, France"
820,Q622738,item,Farbus,2.8241666666667,50.356944444444,"commune in Pas-de-Calais, France"
821,Q622794,item,Nampula Province,39.5,-15.25,province of Mozambique
822,Q622801,item,Sofala,34.75,-19.0,province of Mozambique
823,Q622803,item,Zambezia Province,37.0,-17.0,province of Mozambique
824,Q622817,item,Tomar,-8.4166666666667,39.6,municipality and city in Portugal
825,Q622840,item,Balimela,82.13,18.25,human settlement
826,Q622847,item,Mulkhow Valley,72.31,36.17,human settlement
827,Q622924,item,Brunswick Station,-69.9327828,43.8865748,"census designated place in Cumberland County, Maine, United States"
828,Q622956,item,Aqua Traiana,12.4641,41.8886,1st-century Roman aqueduct from Lake Bracciano to Rome
829,Q623018,item,Wingate,-80.447222222222,34.985,"town in Union County, North Carolina, United States"
830,Q623049,item,Kapfenberg,15.289444444444,47.439444444444,"city in Styria, Austria"
831,Q623095,item,Theiler,82.81,13.35,lunar crater
832,Q623124,item,Fort Union National Monument,-105.012,35.9073,national monument in the United States
833,Q623158,item,Valencia's Aquarium,-68.01124,10.189021,zoo
834,Q623159,item,Qalqilya,34.968508333333,32.190377777778,city in the Palestinian National Authority
835,Q623214,item,Apulian Aqueduct,15.640781,40.869795,"water supply infrastructure serving the Apulia Region, Italy"
836,Q623249,item,Ojo,3.1833333333333,6.4666666666667,local government area of Nigeria
837,Q623295,item,Mamou Prefecture,-12.0833,10.3833,prefecture of Guinea
838,Q623342,item,Petrova Poljana,15.652,45.238,human settlement
839,Q623381,item,Vielitzsee,13.023055555556,52.940277777778,municipality of Germany
840,Q623400,item,Wonju Airport,127.97694444444444,37.45916666666667,airport
841,Q623409,item,Koubia Prefecture,-11.894,11.59,prefecture of Guinea
842,Q623411,item,,9.50444444,40.93638889,
843,Q623529,item,Teatro Lope de Vega,-3.49666667,39.95694444,"theatre in Ocaña, Spain"
844,Q623549,item,Puerto de la Cruz,-16.55,28.416667,"human settlement in Santa Cruz de Tenerife Province, Canary Islands, Spain"
845,Q623568,item,Norwood,-80.12,35.225555555556,"town in Stanly County, North Carolina, United States"
846,Q623576,item,USS Ward,124.55,10.85,destroyer
847,Q623606,item,Araara Island,174.701,-35.897,island
848,Q623653,item,Yanghwa Bridge,126.904,37.5431,"bridge in Seoul, South Korea"
849,Q623678,item,Araban,37.692777777778,37.424722222222,"district and town in Gaziantep, Turkey"
850,Q623685,item,Ólvega,-1.9855555555556,41.779166666667,municipality of Spain
851,Q623687,item,Falkirk,-3.7844444444444,56.000555555556,"town in Falkirk, Scotland, UK"
852,Q623716,item,Arabellapark,11.6203,48.1519,
853,Q623793,item,Les Arques,1.2508333333333,44.6025,"commune in Lot, France"
854,Q623808,item,La Rouxière,-1.0677777777778,47.442777777778,"former commune in Loire-Atlantique, France"
855,Q623817,item,Korea National University of Cultural Heritage,126.897,36.308,university in South Korea
856,Q623840,item,KBS Chuncheon Broadcasting Branch Office,127.721879,37.868302,
857,Q623842,item,Saint-Marcellin-lès-Vaison,5.0986111111111,44.23,"commune in Vaucluse, France"
858,Q623851,item,Jeonbuk National University,127.12935,35.84682,a South Korean university
859,Q623897,item,Hangang Railway Bridge,126.952,37.5196,bridge
860,Q623925,item,Drehnow,14.366666666667,51.866666666667,municipality of Germany
861,Q623945,item,Verkhniye Mandrogi,33.81944444444444,60.89861111111111,"human settlement in Podporozhsky District, Leningrad Oblast, Russia"
862,Q623961,item,Rüthnick,12.983055555556,52.883055555556,municipality of Germany
863,Q623967,item,Milmersdorf,13.6415,53.11185,municipality of Germany
864,Q624023,item,Electronic Frontier Foundation,-122.42166666666667,37.7825,digital rights group; based in US
865,Q624034,item,Soyang Dam,127.81444444,37.94555556,embankment dam
866,Q624063,item,Dipperz,9.795861111111112,50.543330555555556,"municipality in Landkreis Fulda in Hesse, Germany"
867,Q624072,item,Daejeon University,127.46,36.336,
868,Q624122,item,Neuhof,9.6166666666667,50.433333333333,"municipality in Landkreis Fulda in Hesse, Germany"
869,Q624189,item,Anyang University,126.91972222,37.39166667,university
870,Q624251,item,Propiac,5.1986111111111,44.277777777778,"commune in Drôme, France"
871,Q624265,item,Korea Digital Media High School,126.831241,37.341516,high school
872,Q624270,item,Arrou,1.1230555555556,48.100555555556,"former commune in Eure-et-Loir, France"
873,Q624305,item,Seoak Seowon,129.18888889,35.82666667,
874,Q624320,item,Monestier-Port-Dieu,2.5013888888889,45.493055555556,"commune in Corrèze, France"
875,Q624333,item,Paunat,0.85888888888889,44.905833333333,"commune in Dordogne, France"
876,Q624357,item,Willingshausen,9.2,50.85,"municipality in Schwalm-Eder-Kreis in Hesse, Germany"
877,Q624400,item,Dangni Station,128.974085,35.103444,"a railway station operated by Busan Transportation Corporation in Saha District, Busan, South Korea"
878,Q624402,item,Baghpat,77.22,28.95,city in India
879,Q624409,item,Mapo Bridge,126.93638889,37.53361111,bridge in Seoul
880,Q624423,item,Playa de la Arena,-16.839696,28.23061,human settlement
881,Q624439,item,Gaillardbois-Cressenville,1.4052777777778,49.3425,"former commune in Eure, France"
882,Q624465,item,Saffré,-1.5786111111111,47.501666666667,"commune in Loire-Atlantique, France"
883,Q624490,item,Llallagua Municipality,-66.6,-18.366667,municipality of Bolivia
884,Q624495,item,Rasdorf,9.9,50.71666666666667,"municipality in Landkreis Fulda in Hesse, Germany"
885,Q624505,item,Arachania,-54.15,-34.61527778,"village in Rocha Department, Uruguay"
886,Q624511,item,Aracena,-6.5611111111111,37.891111111111,municipality of Spain
887,Q624528,item,Expo Science Park,127.385,36.377,
888,Q624564,item,"California State University, Stanislaus",-120.85583333333,37.525,"public university in Turlock, California, United States"
889,Q624605,item,Jeonju Station,127.1618,35.8498,railway station
890,Q624623,item,Seooreung,126.8944,37.6356,"Royal Joseon tombs in Goyang, South Korea"
891,Q624655,item,Arachthos,21.066944444444,39.0125,"river in Epirus, Greece"
892,Q624678,item,Montgomery,-74.2003,41.5256,"town in Orange County, New York, United States of America"
893,Q624701,item,Roche-le-Peyroux,2.3811111111111,45.4225,"commune in Corrèze, France"
894,Q624714,item,Digital Media City,126.88977222,37.57699722,Central business district
895,Q624765,item,Trubia,-5.9851529,43.33905041,Parroquia of Oviedo
896,Q624807,item,Banwoldang Station,128.59333333,35.86472222,"metro station in Daegu, South Korea"
897,Q624837,item,Gibraltar Broadcasting Corporation,-5.350358,36.124565,television station
898,Q624888,item,Schwalmtal,9.3,50.683333333333,"municipality in Vogelsbergkreis in Hesse, Germany"
899,Q624923,item,Corme-Écluse,-0.85444444444444,45.631111111111,"commune in Charente-Maritime, France"
900,Q624927,item,Chemillé,-0.72583,47.2131,"former commune in Maine-et-Loire, France"
901,Q624934,item,Kaidu River,86.593333333333,42.045833333333,river in the People's Republic of China
902,Q624981,item,Angostura Dam,-92.775,16.404444444444,embankment dam and hydroelectric power station on the Grijalva River
903,Q624985,item,Eastern Illinois University,-88.175277777778,39.484444444444,"public university in Charleston, Illinois"
904,Q624997,item,Aragarças,-52.25083,-15.8975,human settlement in Brazil
905,Q625058,item,Gudeok Baseball Stadium,129.061306,35.194278,
906,Q625070,item,Breddin,12.22366,52.8856,"municipality in Brandenburg state, Germany"
907,Q625074,item,Neißemünde,14.716666666667,52.066666666667,municipality of Germany
908,Q625091,item,Gernsheim,8.485,49.751666666667,"town in Kreis Groß-Gerau, Germany"
909,Q625139,item,Kras,13.9,45.66667,limestone plateau region in south of Europe
910,Q625154,item,Komárom,18.121666666667,47.74,city in Hungary
911,Q625159,item,Armed Forces Nursing Academy,127.349674,36.401451,military academy
912,Q625172,item,Serra do Itajaí National Park,-49.35,-27.2,national park of Brazil
913,Q625201,item,Hautefage,2.0011111111111,45.0825,"commune in Corrèze, France"
914,Q625205,item,Mainneville,1.6827777777778,49.373055555556,"commune in Eure, France"
915,Q625213,item,Saint-Setiers,2.13,45.696388888889,"commune in Corrèze, France"
916,Q625219,item,Tomb of Maimonides,35.5372,32.79,
917,Q625220,item,Saint-Privat,2.0988888888889,45.138333333333,"commune in Corrèze, France"
918,Q625243,item,Tarnac,1.9469444444444,45.680277777778,"commune in Corrèze, France"
919,Q625261,item,Brombachtal,8.9572916666667,49.732361111111,"municipality in Odenwaldkreis in Hesse, Germany"
920,Q625321,item,Severance Hospital,126.941,37.5624,"hospital in Seoul, South Korea"
921,Q625338,item,Lipovac Krstinjski,15.693,45.232,human settlement
922,Q625356,item,Congregation for the Doctrine of the Faith,12.45611111,41.90111111,Rome Congregation
923,Q625406,item,Battle of Philippopolis,24.75,42.15,battle
924,Q625415,item,Drábské světničky,15.0319,50.5319,ruined rock castle in the Czech Republic
925,Q625421,item,Woosong University,127.446,36.338,
926,Q625434,item,Lieurey,0.49916666666667,49.23,"commune in Eure, France"
927,Q625440,item,Miñano Mayor-Miñao,-2.646111,42.9175,locality
928,Q625444,item,Athis-de-l'Orne,-0.50138888888889,48.810555555556,"former commune in Orne, France"
929,Q625496,item,Korea Polytechnic VI Daegu,128.553056,35.873139,university
930,Q625542,item,Bukhansan Monument,126.98027777778,37.524166666667,
931,Q625587,item,Aral–Caspian Depression,59.966666666667,41.833333333333,lowland depression around the Aral Sea and Northern Caspian Sea
932,Q625615,item,Namchang Station,129.284,35.4173,"railway station in Ulju County of Ulsan, South Korea"
933,Q625624,item,Gwacheon National Science Museum,127.0047,37.4388,national museum
934,Q625718,item,Bantva,70.066666666667,21.483333333333,town in the state of Gujarat in India
935,Q625824,item,Chilseong Market Station,128.605,35.87611111,"metro station in Daegu, South Korea"
936,Q625943,item,Seoul High School,127.006115,37.484109,high school
937,Q625954,item,Lagnes,5.1147222222222,43.893333333333,"commune in Vaucluse, France"
938,Q625964,item,Oppède,5.1688888888889,43.844444444444,"commune in Vaucluse, France"
939,Q625967,item,Remaugies,2.6663888888889,49.627777777778,"commune in Somme, France"
940,Q625988,item,Yangmok Station,128.36444444444,36.037222222222,train station in South Korea
941,Q626095,item,Aranuka,173.63376666667,0.19191666666667,island
942,Q626121,item,Araouane,-3.5280555555556,18.904722222222,human settlement
943,Q626124,item,La Porcherie,1.5441666666667,45.580833333333,"commune in Haute-Vienne, France"
944,Q626150,item,Arapata,-67.64388889,-16.27055556,human settlement
945,Q626154,item,Arapaoa Island,174.31666666667,-41.183333333333,island in New Zealand
946,Q626160,item,Maja Harapit,19.755863888889,42.445722222222,mountain
947,Q626181,item,Myeongdeok Station,128.59111111,35.85777778,"metro station in Daegu, South Korea"
948,Q626240,item,Quesnoy-sur-Airaines,1.9908333333333,49.956111111111,"commune in Somme, France"
949,Q626309,item,Saint-Amand-les-Eaux,3.4269444444444,50.448055555556,"commune in Nord, France"
950,Q626313,item,Rural City of Ararat,142.91666666667,-37.283333333333,"local government area in Victoria, Australia"
951,Q626399,item,Querrieu,2.4305555555556,49.938611111111,"commune in Somme, France"
952,Q626423,item,Gyeryong Station,127.265652,36.272666,train station in South Korea
953,Q626425,item,King Road Tower,39.1249,21.5591,"A business center in Jeddah, Saudi Arabia"
954,Q626458,item,Catholic Kwandong University,128.871567,37.7364444,
955,Q626467,item,Dacian fortress of Racoș,25.4206,46.0233,dava
956,Q626541,item,Sauxillanges,3.3713888888889,45.551111111111,"commune in Puy-de-Dôme, France"
957,Q626543,item,Arauca,-70.761666666667,7.0902777777778,capital of the Colombian department of Arauca
958,Q626589,item,Montebourg,-1.3794444444444,49.487777777778,"commune in Manche, France"
959,Q626634,item,University of Texas–Pan American,-98.1732,26.3062,defunct university
960,Q626673,item,Saigawa,130.94372222222222,33.647555555555556,"dissolved municipality in Miyako district, Fukuoka prefecture, Japan"
961,Q626682,item,Arabah,35.151388888889,30.416944444444,area south of the Dead Sea basin in Israel and Jordan
962,Q626695,item,Ibajay,122.16166666666666,11.821111111111112,municipality of the Philippines in the province of Aklan
963,Q626729,item,Arawa,155.56666666666666,-6.225,human settlement
964,Q626752,item,Camp Humphreys,127.033333,36.966667,United States Army garrison in South Korea
965,Q626786,item,Libacao,122.3,11.483333333333,municipality of the Philippines in the province of Aklan
966,Q626798,item,Bouesse,1.6877777777778,46.616388888889,"commune in Indre, France"
967,Q626809,item,Mount Arayat,120.742,15.2,"Stratovolcano on Luzon Island, Philippines"
968,Q626832,item,Araçu,-49.680833333333,-16.357777777778,human settlement in Brazil
969,Q626835,item,Araçatuba,-50.432777777778,-21.208888888889,"city located in the northwest of São Paulo state, Brazil"
970,Q626850,item,Arba titular see,14.76195,44.75425,titular see
971,Q626878,item,Arbachgraben,11.0173,49.0917,river in Germany
972,Q626918,item,Bû,1.4952777777778,48.796388888889,"commune in Eure-et-Loir, France"
973,Q626920,item,Arbat District,37.59,55.751,human settlement in Russia
974,Q626956,item,Baekseoksan,127.933,38.2667,mountain
975,Q626975,item,Hwaaksan,127.50305555556,37.995,mountain
976,Q626976,item,Ribemont-sur-Ancre,2.5655555555556,49.96,"commune in Somme, France"
977,Q627087,item,Borås Arena,12.934334,57.73457,"soccer stadium in Borås, Sweden"
978,Q627135,item,Aretxabaleta,-2.6725,42.831944,locality
979,Q627194,item,Saint-Gaultier,1.4202777777778,46.635277777778,"commune in Indre, France"
980,Q627243,item,Saint-Philbert-sur-Risle,0.64944444444444,49.295,"commune in Eure, France"
981,Q627250,item,Workers Stadium,116.441139,39.929528,football stadium
982,Q627258,item,Siehdichum,14.533333333333,52.194444444444,"municipality in Oder-Spree district, Brandenburg state, Germany"
983,Q627259,item,Torfbahnhof,11.677,48.2276,"building in Ismaning, Upper Bavaria, Germany"
984,Q627281,item,Nassandres,0.73472222222222,49.126944444444,"former commune in Eure, France"
985,Q627413,item,Unterleinleiter,11.183055555556,49.816666666667,municipality in Landkreis Forchheim in Germany
986,Q627419,item,,13.9071,51.1055,
987,Q627423,item,National and University Library of Iceland,-21.950555555556,64.142777777778,National library of Iceland
988,Q627481,item,Arbeitsgemeinschaft Deutscher Waldbesitzerverbände,13.38442,52.52411,working group of German forest owners association
989,Q627487,item,Aryanah,10.195555555556,36.8625,Tunisian town
990,Q627544,item,Hasselroth,9.1,50.166666666667,"municipality in Main-Kinzig-Kreis in Hesse, Germany"
991,Q627556,item,Husaby parish,13.38,58.525277777778,parish of the Church of Sweden
992,Q627604,item,Nasipit,125.3408,8.9884,municipality of the Philippines in the province of Agusan del Norte
993,Q627607,item,Public and National Library of Greenland,-51.739166666667,64.175555555556,national library
994,Q627659,item,Drangstedt,8.753025,53.61563611111111,municipality of Germany
995,Q627737,item,,10.5535,52.2733,
996,Q627739,item,,8.81272,53.0737,
997,Q627759,item,,6.79633,51.2192,
998,Q627765,item,Birkenhügel,11.75,50.433333333333,municipality of Germany
999,Q627793,item,Holzsußra,10.693888888889,51.292777777778,municipality of Germany
1000,Q627796,item,,7.84423,51.6844,
1001,Q627798,item,,8.92264,50.1372,
1002,Q627821,item,,7.60144,50.3593,
1003,Q627830,item,,12.3783,51.3501,"Employment Tribunal in Leipzig, Germany"
1004,Q627865,item,,6.43991,51.2021,
1005,Q627890,item,Sant Joan de Moró,-0.1371097,40.0609116,municipality of Spain
1006,Q627900,item,,8.75979,50.1016,
1007,Q627913,item,Arbeitsgericht Paderborn,8.72943,51.7136,
1008,Q627935,item,Berkenbrück,14.15,52.35,municipality of Germany
1009,Q627968,item,1860 Wiyot Massacre,-124.166965,40.815368,
1010,Q627971,item,,7.09017,51.1719,
1011,Q627972,item,Arbeitsgericht Stade,9.47802,53.5998,
1012,Q627990,item,,10.693,50.6106,
1013,Q627997,item,,6.6384,49.7574,
1014,Q628076,item,Alaska Highway,-120.23556,55.76083,"international highway in British Columbia and Yukon in Canada and Alaska, United States"
1015,Q628086,item,Siege of Gaeta,13.57326389,41.21301389,siege
1016,Q628088,item,"Waliszew, Łódź Voivodeship",19.5425,52.1621,village of Poland
1017,Q628105,item,Meyenburg,12.233055555556,53.316666666667,town in Germany
1018,Q628126,item,Church with Chapel Brampton,-0.94,52.29,civil parish in England
1019,Q628133,item,canton of Heyrieux,5.05737265,45.5917084,canton of France (until March 2015)
1020,Q628142,item,Gumtow,12.25,52.983055555556,"municipality in Brandenburg state, Germany"
1021,Q628190,item,Herrieden,10.5064,49.233,town in Germany
1022,Q628201,item,Coney Island,-73.9825,40.575,"peninsula and beach in New York City, New York, USA"
1023,Q628233,item,Sclessin,5.54027778,50.60972222,"neighborhood in Liège, Belgium"
1024,Q628241,item,Hollnich,7.4880555555556,50.074166666667,municipality of Germany
1025,Q628290,item,Stromberg,7.7794444444444,49.946944444444,"municipality in Bad Kreuznach district, Rhineland-Palatinate, Germany"
1026,Q628320,item,Rajčetine,22.2419,42.8372,human settlement
1027,Q628341,item,Riegelsberg,6.93745,49.29425,municipality of Germany
1028,Q628375,item,Château de Puivert,2.055,42.921111111111,castle
1029,Q628406,item,Grebenhain,9.3358,50.4889,"municipality in Vogelsbergkreis in Hesse, Germany"
1030,Q628435,item,Nausitz,11.338055555556,51.315,municipality of Germany
1031,Q628531,item,Sagene,10.756111111111,59.937222222222,urban district
1032,Q628634,item,Maisons-en-Champagne,4.4961111111111,48.748888888889,"commune in Marne, France"
1033,Q628636,item,Trachslau,8.7252777777778,47.098055555556,"quarter in the municipality of Einsiedeln, Schwyz, Switzerland"
1034,Q628715,item,Hajmás,17.911480555556,46.274819444444,village in Hungary
1035,Q628725,item,Velje Polje,20.3081,42.9847,human settlement
1036,Q628727,item,Marienfels,7.8138888888889,50.241388888889,municipality of Germany
1037,Q628746,item,Booker T. Washington National Monument,-79.7658,37.1233,224 acres managed by the U.S. National Park Service
1038,Q628757,item,Iron Ridge,-88.5311,43.3992,"village in Dodge County, Wisconsin"
1039,Q628840,item,Dreikirchen,7.9552777777778,50.446944444444,municipality of Germany
1040,Q628902,item,Ménil-aux-Bois,5.4438888888889,48.805277777778,"commune in Meuse, France"
1041,Q628929,item,1561 celestial phenomenon over Nuremberg,11.083333,49.45,uncomprehended phenomenon observed over Nuremberg in 1561
1042,Q628990,item,Seitingen-Oberflacht,8.7258333333333,48.018888888889,municipality in Germany
1043,Q629052,item,Emsbüren,7.2913888888889,52.3925,municipality of Germany
1044,Q629083,item,"Czarny Las, Kuyavian-Pomeranian Voivodeship",19.411388888889,52.855555555556,village of Poland
1045,Q629094,item,Uthlede,8.581791666666666,53.31443888888889,Location of the municipality Hagen im Bremischen
1046,Q629196,item,Womrath,7.4486111111111,49.9175,municipality of Germany
1047,Q629214,item,Elleben,11.092222222222,50.861944444444,"municipality in Thuringia, Germany"
1048,Q629226,item,Wolferschwenda,10.802777777778,51.236666666667,municipality of Germany
1049,Q629259,item,Gössitz,11.587222222222,50.620555555556,municipality of Germany
1050,Q629314,item,Polch,7.3166666666667,50.301111111111,municipality of Germany
1051,Q629368,item,Passade,10.316666666667,54.366666666667,municipality of Germany
1052,Q629396,item,Nuh,77.001388888889,28.102777777778,"human settlement in the Haryana state, India"
1053,Q629405,item,Rue,1.6677777777778,50.272222222222,"commune in Somme, France"
1054,Q629415,item,Heikendorf,10.208055555556,54.372222222222,municipality of Germany
1055,Q629436,item,Morne Trois Pitons National Park,-61.283333,15.266667,"World Heritage Site in Dominica, in the Caribbean"
1056,Q629454,item,Lake,-87.886944444444,45.200833333333,"civil town in Marinette County, Wisconsin"
1057,Q629465,item,Pulau Pawai,103.72472222222,1.1861277777778,island in Singapore
1058,Q629469,item,Brewster,-99.865555555556,41.938333333333,"human settlement in Blaine County, Nebraska, United States of America"
1059,Q629471,item,Kiskunmajsa,19.736666666667,46.492222222222,town in Hungary
1060,Q629473,item,Klettstedt,10.743399722222222,51.1433,"municipality in Thuringia, Germany"
1061,Q629483,item,Pomster,6.8425,50.352222222222,municipality of Germany
1062,Q629497,item,Chester,-71.257222222222,42.956666666667,"human settlement in Rockingham County, New Hampshire, United States of America"
1063,Q629510,item,Ōyodo,135.79,34.390555555556,"town in Yoshino district, Nara prefecture,  Japan"
1064,Q629511,item,Gammalsvenskby,33.57732,46.87056,village in Ukraine
1065,Q629547,item,South Dixon Township,-89.464166666667,41.795,township of Illinois
1066,Q629590,item,"Manzanilla, Spain",-6.4316237,37.3887479,municipality of Spain
1067,Q629613,item,Gallaratese,9.1175,45.49416667,neighborhood in Milan
1068,Q629633,item,Possesse,4.8047222222222,48.888333333333,"commune in Marne, France"
1069,Q629641,item,Baščaršija,18.4311152,43.8597245,old market part of Sarajevo
1070,Q629664,item,Arbesbach,14.933333333333,48.466666666667,"municipality in Zwettl District, Lower Austria, Austria"
1071,Q629678,item,Wellington North,-80.566666666667,43.9,"township in Ontario, Canada"
1072,Q629695,item,Notre-Dame-d'Épine,0.60083333333333,49.197222222222,"commune in Eure, France"
1073,Q629699,item,Hettenleidelheim,8.0733333333333,49.535555555556,municipality of Germany
1074,Q629720,item,Čučer-Sandevo Municipality,21.38,42.11,local administrative unit (opština) in North Macedonia
1075,Q629727,item,La Haye-de-Calleville,0.78555555555556,49.186388888889,"commune in Eure, France"
1076,Q629780,item,canton of Maisons-Laffitte,2.13565178,48.94135672,canton of France (until March 2015)
1077,Q629824,item,Ilha do Mel,-48.338888888889,-25.511666666667,"island in Paraná state 25°32'S, 48°19'W"
1078,Q629830,item,Meerfeld,6.7555555555556,50.094166666667,municipality of Germany
1079,Q629832,item,Tykha,22.779166666667,49.401388888889,"village in Staryi Sambir Raion, Lviv Oblast, Ukraine"
1080,Q629841,item,,12.7113,48.3234,"neighborhood in Reischach, Germany"
1081,Q629849,item,Hatvan,19.669722222222,47.668055555556,town in Hungary
1082,Q629853,item,Farschweiler,6.8272222222222,49.715555555556,municipality of Germany
1083,Q629864,item,Gooimeer,5.206389,52.321389,lake in the Netherlands
1084,Q629869,item,,-6.01905,41.3497,locality
1085,Q629896,item,Champguyon,3.5419444444444,48.776111111111,"commune in Marne, France"
1086,Q629902,item,Sichuan Giant Panda Sanctuaries,103.0,30.833333333333,nature reserve
1087,Q629908,item,Neidenfels,8.0463888888889,49.388888888889,municipality of Germany
1088,Q629934,item,Manufahi Municipality,125.78333333333,-9.0,municipality of East Timor
1089,Q629966,item,Daishin-ji,139.736931,35.643583,"Buddhist temple in Tokyo, Japan"
1090,Q630029,item,Elkton,-92.708611111111,43.662777777778,"city in Mower County, Minnesota, United States"
1091,Q630031,item,Arbo,-8.3123868,42.1122944,"municipality in Galicia, in the province of Pontevedra, Spain"
1092,Q630036,item,Keravanjoki,24.972963888889,60.264333333333,"river of Uusimaa, Finland"
1093,Q630052,item,"Raha, Nepal",82.9375,29.038888888889,village development committee
1094,Q630097,item,Aston,1.6733333333333,42.774722222222,"commune in Ariège, France"
1095,Q630110,item,Hammerstedt,11.453207,50.954246,municipality of Germany
1096,Q630135,item,Gardens by the Bay,103.86527,1.283319,urban park
1097,Q630151,item,Bad Eilsen,9.0994444444444,52.243055555556,municipality of Germany
1098,Q630157,item,Marquay,1.1338888888889,44.943611111111,"commune in Dordogne, France"
1099,Q630185,item,"Kujawki, Łódź Voivodeship",19.6244,52.1893,village of Poland
1100,Q630190,item,Love,131.3,-6.5,lunar crater
1101,Q630192,item,Popovec,16.141,45.854,human settlement
1102,Q630193,item,Saint-Aignan-Grandlieu,-1.6305555555556,47.123888888889,"French commune in Loire-Atlantique, Pays de la Loire"
1103,Q630207,item,Skårup Parish,10.68711111,55.09377778,subdivision of the Diocese of Funen
1104,Q630258,item,Barro,0.22666666666667,46.000555555556,"commune in Charente, France"
1105,Q630260,item,Hebbronville,-98.6811,27.3114,"census-designated place in Texas, USA"
1106,Q630318,item,via San Gregorio Armeno,14.25774,40.850258,"thoroughfare in Naples, Italy"
1107,Q630343,item,Ibn Battuta,50.4,-6.9,lunar crater
1108,Q630351,item,Schinkelbuurt,4.8545,52.3524,neighborhood of Amsterdam
1109,Q630444,item,Dreitzsch,11.8,50.733055555556,municipality of Germany
1110,Q630465,item,Arboretum Zürich,8.5364527777778,47.362722222222,garden in Switzerland
1111,Q630481,item,Jászfényszaru,19.716666666667,47.566666666667,town in Hungary
1112,Q630547,item,Mur-de-Barrez,2.6616666666667,44.842222222222,"commune in Aveyron, France"
1113,Q630554,item,,22.97047222,54.32230556,parish
1114,Q630557,item,Sionne,5.6397222222222,48.392777777778,"commune in Vosges, France"
1115,Q630567,item,Nara,36.558555555556,55.566111111111,"river in Moscow and Kaluga Oblasts, Russia"
1116,Q630614,item,O'Day,157.5,-30.6,lunar crater
1117,Q630620,item,Naonobu,57.8,-4.6,lunar crater
1118,Q630629,item,Casaseca de Campeán,-5.7461764,41.3755044,"municipality of Zamora Province, Spain"
1119,Q630762,item,Ambika River,72.83333333,20.76666667,"river of Gujarat, India"
1120,Q630826,item,Marschacht,10.368611111111,53.416944444444,municipality in Germany
1121,Q630839,item,Ivan Vazov National Library,24.746111,42.139444,library in Bulgaria
1122,Q630842,item,Villa Sparta,11.289201,43.801799,"villa in San Domenico in Fiesole, Italy"
1123,Q630847,item,Libri Prohibiti,14.434444444444445,50.079166666666666,Czech library
1124,Q630870,item,Petit-Rechain,5.8353,50.6153,"section of Verviers, Belgium"
1125,Q630882,item,Republic of New Granada,-74.05,4.65,former republic in South America and Central America between 1831–1858
1126,Q630999,item,Beesten,7.5,52.433333333333,municipality of Germany
1127,Q631024,item,Monasterioguren,-2.643056,42.803889,locality
1128,Q631048,item,Islands Regional Unit,23.5,37.33333333,"part of the region of Attica, Greece"
1129,Q631074,item,Boltenhagen,11.216666666667,53.966666666667,municipality of Germany
1130,Q631080,item,Mont-Saint-Éloi,2.6930555555556,50.351111111111,"commune in Pas-de-Calais, France"
1131,Q631101,item,Falkenhain,12.873611111111,51.399166666667,human settlement
1132,Q631104,item,arc de triomphe du Carrousel,2.332778,48.861944,triumphal arch in Paris
1133,Q631137,item,Sommerau,6.7366666666667,49.714444444444,municipality of Germany
1134,Q631149,item,Kalulushi District,28.0,-12.66666667,district of Zambia
1135,Q631183,item,Risnjak National Park,14.745,45.42833333,national park in Croatia
1136,Q631189,item,Kama Reservoir,56.35,58.133333333333,"reservoir in Perm Krai, Russia"
1137,Q631227,item,Kürtener Sülz,7.3659444444444,51.104111111111,river in Germany
1138,Q631282,item,Prince William Sound,-147.16805555556,60.615,sound of the Gulf of Alaska
1139,Q631287,item,Wilhelminakanaal,4.84632,51.65128,canal in the Netherlands
1140,Q631338,item,Rotštejn Castle,15.22416667,50.59444444,rock castle
1141,Q631354,item,Hayward,-93.24409,43.65051,city in Minnesota
1142,Q631407,item,Resafa,38.756388888889,35.627777777778,archaeological site in Syria
1143,Q631441,item,Bretleben,11.232803,51.33628,municipality of Germany
1144,Q631448,item,Northwood tube station,-0.4244,51.6109,London Underground station
1145,Q631475,item,Rossau,16.3639,48.2217,quarter of Vienna
1146,Q631492,item,Nauendorf,11.884722222222,51.602777777778,human settlement
1147,Q631559,item,La Faurie,5.74,44.567222222222,"commune in Hautes-Alpes, France"
1148,Q631563,item,La Haute-Beaume,5.6277777777778,44.563888888889,"commune in Hautes-Alpes, France"
1149,Q631582,item,Sault,5.4080555555556,44.091111111111,"commune in Vaucluse, France"
1150,Q631606,item,Saint-Pierre-de-Vassols,5.1369444444444,44.101111111111,"commune in Vaucluse, France"
1151,Q631640,item,Szydłów train station,17.705006,50.605856,"railway station in Opole Voivodeship, Poland"
1152,Q631644,item,Saint-Génard,-0.135,46.181944444444,"commune in Deux-Sèvres, France"
1153,Q631654,item,Selent,10.416666666667,54.283333333333,municipality of Germany
1154,Q631686,item,Ramburelles,1.7097222222222,49.9675,"commune in Somme, France"
1155,Q631690,item,Pigne d'Arolla,7.455,45.991111111111,mountain
1156,Q631723,item,Saint-Rome-de-Dolan,3.2158333333333,44.273611111111,"former commune in Lozère, France"
1157,Q631734,item,Aqua Augusta,14.080277777777777,40.79527777777778,aqueduct
1158,Q631740,item,Roman Catholic Diocese of Arcavica,-2.66942,40.4318,tiular see
1159,Q631780,item,,34.570473,37.823445,former country
1160,Q631783,item,Langenlonsheim,7.8980555555556,49.894722222222,municipality of Germany
1161,Q631813,item,Miličín,14.661446397534,49.570761264685,village in Benešov District of Central Bohemian region
1162,Q631828,item,Tulebras,-1.6763888888889,41.976666666667,municipality of Spain
