,id,type,english_label,longitude,latitude,english_desc
0,Q163893,item,La Croix-Valmer,6.5680555555556,43.207777777778,"commune in Var, France"
1,Q163911,item,Wolf Creek Generating Station,-95.6889,38.2389,"Nuclear power plant in Coffey County, Kansas"
2,Q163924,item,Bořislav,13.929300602292,50.579442418989,village in Teplice District of Ústí nad Labem region
3,Q163929,item,Roman Catholic Diocese of Sumbe,13.835778,-11.201667,Catholic ecclesiastical territory
4,Q163962,item,Beijingnan railway station,116.372573,39.863546,"railway station in Beijing, China"
5,Q164003,item,"San Buenaventura, La Paz",-67.54083333,-14.43472222,city
6,Q164070,item,Strait of Otranto,18.925556,40.219444,strait that connects the Adriatic Sea with the Ionian Sea and separates Italy from Albania
7,Q164121,item,Llaima,-71.730445,-38.697407,mountain
8,Q164133,item,La Cuba,-0.2979842,40.5914927,municipality of Spain
9,Q164193,item,Lviv Oblast,23.950277777778,49.7175,administrative division (oblast) in western Ukraine
10,Q164289,item,Saint John's Church,18.06444444,59.33944444,"Church of Sweden church building in Stockholm, Sweden"
11,Q164421,item,Connacht,-9.05,53.78,province in Ireland
12,Q164471,item,Jiřetín pod Jedlovou,14.575194251298,50.874517890076,village in Děčín District of Ústí nad Labem region
13,Q164479,item,Okrouhlice,15.490871457825,49.629964761597,village in Havlíčkův Brod District of Vysočina region
14,Q164516,item,Ždírec,15.641976700824,49.629209543628,village in Havlíčkův Brod District of Vysočina region
15,Q164561,item,Fichtelberg,12.954166666667,50.429444444444,mountain
16,Q164564,item,Budíkov,15.362641336822,49.579197085564,village in Pelhřimov District of Vysočina region
17,Q164590,item,Květinov,15.507344625233,49.564702102252,village in Havlíčkův Brod District of Vysočina region
18,Q164717,item,Angat Dam,121.16,14.90805556,dam in the Philippines
19,Q164877,item,1000 de La Gauchetière,-73.5663,45.4982,"skyscraper in Montreal, Quebec, Canada"
20,Q164912,item,Castrum Vitudurum,8.75571,47.50279,castrum
21,Q165008,item,German New Guinea,152.1606,-4.2149,colonial protectorate of the German Empire from 1884 to 1919 comprising the northeastern part of the island of New Guinea and its various nearby islands
22,Q165010,item,Velké Hoštice,17.973849111564,49.936084437581,village in Opava District of Moravian Silesian region
23,Q165036,item,Irschenberg,11.916666666667,47.833333333333,municipality of Germany
24,Q165041,item,Jonzier-Épagny,5.9897222222222,46.070555555556,"commune in Haute-Savoie, France"
25,Q165146,item,Lien Khuong Airport,108.373611,11.750556,International Airport
26,Q165286,item,HMS Serapis,49.841944444444,-17.0025,Roebuck-class ship
27,Q165380,item,Hann. Münden,9.65,51.416666666667,city and independent municipality in Lower Saxony
28,Q165570,item,Lelantine Plain,23.658333,38.434167,plain
29,Q165614,item,"Baden, Lower Saxony",9.0833333333333,53.0,human settlement in Germany
30,Q165662,item,Elburg,5.85,52.4333,"municipality in Gelderland, the Netherlands"
31,Q165707,item,Schwarzbach,8.392589,50.23226,"right tributary of Main river, Germany"
32,Q165767,item,Torre de guaita de Tous,-0.666317,39.1529,tower
33,Q165783,item,British Antarctic Territory,-50.0,-75.0,sector of Antarctica claimed by the United Kingdom as one of its British Overseas Territories
34,Q165839,item,Danziger Höhe District,18.01638888888889,54.195277777777775,district of Prussia
35,Q165887,item,Emmaus,34.989458,31.8393,small village near Jerusalem
36,Q165892,item,Gaflenz,14.72523,47.89609,"municipality in Steyr-Land District, Upper Austria, Austria"
37,Q166004,item,North German Plain,10.4,53.6,plain in Germany
38,Q166050,item,Nový Telečkov,15.938374875833,49.321211672268,village in Třebíč District of Vysočina region
39,Q166126,item,Kobojango,28.728819,-21.832697,village in Botswana
40,Q166127,item,SS Rotterdam,4.47417,51.89778,Dutch passenger ship turned into museum and hotel ship
41,Q166145,item,Karsina,16.49916667,54.08888889,village of Poland
42,Q166162,item,Lake Onega,35.655555555556,61.690555555556,"freshwater lake in Russia, second largest in Europe"
43,Q166227,item,Brody Ghetto,25.15,50.083333,Nazi ghetto in occupied Poland
44,Q166248,item,Pyramid of Khui,30.87166667,27.30777778,smooth-sided pyramid
45,Q166292,item,Duke's Chair,14.3465,46.6909,
46,Q166327,item,Mathathane,28.7495,-22.2688,village in Botswana
47,Q166339,item,Rycharcice,19.73333333,52.7,village of Poland
48,Q166348,item,Schabajewo,19.8333,52.8,village of Poland
49,Q166373,item,Rzeszotary-Zawady,19.834444444444,52.904722222222,village of Poland
50,Q166375,item,Jaworowo-Kolonia,19.860555555556,52.871666666667,village of Poland
51,Q166437,item,Młotkowo-Wieś,19.82,52.8211,village of Poland
52,Q166438,item,Nuremberg International Toy Fair,11.11773333,49.41739444,
53,Q166440,item,Stopin,19.7333,52.9167,village of Poland
54,Q166503,item,Nationwide Arena,-83.006111111111,39.969283333333,multi-purpose stadium
55,Q166660,item,Kuniewo,19.6167,52.7833,village of Poland
56,Q166712,item,Choczeń,19.55,52.8,village in Poland
57,Q166717,item,Kruszwica,18.329166666667,52.677222222222,city of Poland
58,Q166736,item,Ligówko,19.5,52.8167,village of Poland
59,Q166757,item,Robelela,27.9809,-21.5919,village in Botswana
60,Q166765,item,Leviathan,-79.5399,43.8459,roller coaster
61,Q166793,item,Rempin,19.65,52.71666667,village of Poland
62,Q166829,item,Miercurea Nirajului,24.8,46.53,"town in Mureș County, Romania"
63,Q166851,item,Nordens Ark,11.435,58.441111111111,zoo in Sweden
64,Q166852,item,Semberija,19.21361111,44.80083333,landform
65,Q166897,item,"Nelson's Column, Montreal",-73.553889,45.508333,victory column
66,Q166916,item,Kabarnet,35.75,0.5,human settlement
67,Q166933,item,"Phuduhudu, North-West District",24.536388888889,-20.195277777778,village in Botswana
68,Q166961,item,Battle of Shrewsbury,-2.7185,52.7475,15th-century battle of the Glyndŵr Rising
69,Q166972,item,Zavodovski Island,-27.566666666667,-56.3,island
70,Q166977,item,Chiayi County,120.641875,23.496205555556,county in Taiwan
71,Q166989,item,Tsetsebjwe,28.397971,-22.415946,human settlement
72,Q166994,item,Umaki interchange,132.72325,34.357111111111,"interchange in Higashihiroshima, Hiroshima prefecture, Japan"
73,Q167011,item,Straden,15.871111111111,46.805833333333,"municipality in Südoststeiermark District, Styria, Austria"
74,Q167034,item,Tetteh Quarshie Interchange,-0.176111,5.622778,interchange
75,Q167044,item,Yudychvumchorr,33.433888888889,67.718611111111,mountain
76,Q167087,item,Jufuku-ji,139.54902112,35.32426226,"building in Kamakura, Kanagawa Prefecture, Japan"
77,Q167148,item,Sneek railway station,5.65167,53.03222,railway station in Friesland
78,Q167231,item,Hildesheim Cathedral,9.947222,52.148889,"cathedral church in Hildesheim, Germany"
79,Q167263,item,Degerby,20.3875,60.029722222222,"village in Föglö, Åland Islands, Finland"
80,Q167295,item,Mederdra,-15.661138888889,16.919472222222,commune of Mauritania
81,Q167301,item,Letlhakane,25.316111111111,-21.416666666667,City in northern Botswana
82,Q167450,item,Stropkowo,19.85,52.8167,village of Poland
83,Q167465,item,Jaworowo-Lipa,19.899722222222,52.901111111111,village of Poland
84,Q167479,item,J. Edgar Hoover Building,-77.025,38.8952,architectural structure
85,Q167482,item,N1 road,18.4239,-33.9144,national road in South Africa
86,Q167502,item,Pyeongtaek Jije Station,127.07027777778,37.018888888889,train station in South Korea
87,Q167516,item,Gusu District,120.61666666667,31.3,"district of Jiangsu Province, China"
88,Q167559,item,Smorzewo,19.6261,52.7692,village of Poland
89,Q167565,item,Lenawee County,-84.07,41.89,"county in Michigan, United States"
90,Q167585,item,East York,-79.3278,43.6913,"former municipality in Ontario, Canada"
91,Q167600,item,Auxerre,3.5669444444444,47.7975,"commune in Yonne, France"
92,Q167602,item,Sankt Ruprecht an der Raab,15.662222222222,47.153888888889,"municipality in Weiz District, Styria, Austria"
93,Q167614,item,Mayres,4.1144444444444,44.665555555556,"commune in Ardèche, France"
94,Q167649,item,Netivot,34.583333333333,31.416666666667,city in Israel
95,Q167656,item,Berrien County,-86.59,41.94,"county in Michigan, United States"
96,Q167659,item,Nof HaGalil,35.333333333333,32.716666666667,city in Israel
97,Q167742,item,Malanówko,19.4667,52.8,village of Poland
98,Q167746,item,Zglenice Małe,19.6072,52.7864,village of Poland
99,Q167783,item,Zawoja,19.56667,49.66667,village of Poland
100,Q167804,item,Massimino,8.0666666666667,44.3,Italian comune
101,Q167814,item,Zayandeh River‎,52.8675,32.3034,river in Iran
102,Q167935,item,Załuski Library,21.009722222222223,52.245555555555555,library in Warsaw
103,Q167952,item,Zašová,18.044386927156,49.47408987677,village in Vsetín District of Zlín region
104,Q167955,item,Zažablje,17.615555555556,42.9925,municipality of Croatia
105,Q167982,item,,24.1309,-20.2156,village in Botswana
106,Q167983,item,Schwändi,9.0672222222222,47.006388888889,"former municipality in the canton of Glarus, Switzerland"
107,Q167984,item,Nahant Beach Boulevard,-70.938056,42.436667,"historic parkway in Massachusetts, USA"
108,Q168001,item,Santa Justa Lift,-9.13917,38.71194,"cultural heritage monument in Lisboa, Portugal"
109,Q168007,item,Marion Township,-83.975833333333,39.293611111111,"township in Clinton County, Ohio"
110,Q168072,item,Roman Catholic Diocese of Dundo,20.835333,-7.37625,Catholic ecclesiastical territory
111,Q168112,item,Castedo,-7.4677777777778,41.228888888889,locality and former civil parish in Portugal
112,Q168118,item,Santa Eugénia,-7.4111111111111,41.350277777778,civil parish in Alijó
113,Q168129,item,Vila Chã,-7.4872222222222,41.324166666667,civil parish in Alijó
114,Q168131,item,Abag Banner,114.96227,44.01957,banner
115,Q168141,item,Pópulo,-7.5030555555556,41.374722222222,locality and former civil parish in Portugal
116,Q168215,item,Tirat Carmel,34.966666666667,32.766666666667,city in Israel
117,Q168259,item,Calde,-7.9063888888889,40.785555555556,civil parish in Viseu
118,Q168262,item,Zborov nad Bystricou,18.88194444,49.38277778,municipality of Slovakia
119,Q168278,item,Povolide,-7.796,40.66203,civil parish and former town in Viseu
120,Q168322,item,Zbyslavská mozaika,15.4749,49.9436,natural monument
121,Q168330,item,Sakhnin,35.3,32.866666666667,city in Israel
122,Q168337,item,Migdal HaEmek,35.244444444444,32.678611111111,city of Israel
123,Q168400,item,Canton Tower,113.31914722222,23.1092,Canton television and tourism tower
124,Q168421,item,Minerva Hills National Park,148.06416666667,-24.080555555556,national park in Australia
125,Q168451,item,Couto de Cima,-8.0052777777778,40.669722222222,locality and former civil parish in Portugal
126,Q168459,item,Ösch River,7.65687,47.2359,river in Switzerland
127,Q168466,item,São Pedro de France,-7.7894444444444,40.71,civil parish in Viseu
128,Q168490,item,,28.4363,-21.9655,
129,Q168523,item,Burg Münchhausen,7.04454,50.6112,castle
130,Q168544,item,Ribalonga,-7.5047222222222,41.357222222222,"locality and former civil parish in Alijó, Portugal"
131,Q168579,item,Joe Louis Arena,-83.051388888889,42.325277777778,"arena located in Detroit, Michigan"
132,Q168595,item,Godolphin Estate,-5.3584,50.138,"property situated in Godolphin Cross, Cornwall, England"
133,Q168611,item,Ehndorf transmitter,9.84778,54.0417,tower
134,Q168648,item,Sopron,16.583333333333,47.683333333333,city in Hungary
135,Q168670,item,Maccastorna,9.8555555555556,45.1475,Italian comune
136,Q168681,item,Carlão,-7.4044444444444,41.315277777778,locality and former civil parish in Portugal
137,Q168684,item,,28.436251,-21.965545,
138,Q168690,item,Favaios,-7.5,41.266666666667,town and civil parish in Alijó
139,Q168701,item,Hoya,9.1333333333333,52.8,municipality of Germany
140,Q168737,item,château Ramezay,-73.553333333333,45.509027777778,museum and historic building in Old Montreal
141,Q168754,item,Space World,130.81215,33.87352,former amusement park in Japan
142,Q168757,item,Quinta presidencial de Olivos,-58.482889,-34.514944,official residence of the President of Argentina in Buenos Aires
143,Q168806,item,St Andrew's Cathedral,103.85202777778,1.2920833333333,Anglican cathedral in Singapore
144,Q168824,item,Kandé,1.0463888888889,9.9563888888889,city
145,Q168837,item,Chojeniec,23.1,51.2,village of Poland
146,Q168841,item,Tuczna,23.423333333333,51.880555555556,village of Poland
147,Q168842,item,,27.4635,-21.9003,
148,Q168846,item,Aïn Defla,1.9583333333333,36.258333333333,municipality of Algeria
149,Q168855,item,Killarney,-99.6628,49.1833,"town in Manitoba, Canada"
150,Q168900,item,Zbýšov,16.34952542846,49.155276849127,town in Brno-Country District in the South Moravian Region of the Czech Republic
151,Q168904,item,Vechte,7.2825,52.0189,river in Germany and the Netherlands
152,Q169237,item,Zduńska Wola,18.933333333333334,51.6,city and urban gmina of Poland
153,Q169348,item,Zeballos,-126.845,49.9833,"village in British Columbia, Canada"
154,Q169501,item,Poltava Oblast,34.55138888888889,49.589444444444446,oblast of Ukraine
155,Q169521,item,"Zebrzydowice, Silesian Voivodeship",18.6142,49.878863888889,village in Poland
156,Q169587,item,Zech,9.7325,47.5389,human settlement in Germany
157,Q169589,item,Etajima,132.47796111111,34.246375,island
158,Q169610,item,Zeche Admiral,7.50028,51.4683,mine
159,Q169625,item,Mare Serenitatis,17.5,28.0,lunar feature
160,Q169627,item,,7.33236,51.421,mine
161,Q169630,item,,7.21533,51.4457,mine
162,Q169643,item,,7.13601,51.4191,mine
163,Q169668,item,Zeche Baaker Mulde,7.17778,51.4275,mine
164,Q169681,item,,7.03112,51.5278,mine
165,Q169686,item,,7.09682,51.451,mine
166,Q169690,item,,7.01601,51.415,mine
167,Q169697,item,Zeche Brockhauser Tiefbau,7.20472,51.4313,mine
168,Q169702,item,,7.41428,51.4568,mine
169,Q169703,item,,7.22442,51.3236,mine
170,Q169741,item,,7.30856,51.4736,mine
171,Q169745,item,,7.31062,51.3535,mine
172,Q169755,item,,6.70974,51.4193,mine
173,Q169762,item,,7.04261,51.4069,mine
174,Q169777,item,,7.53278,51.4722,mine
175,Q169778,item,Zeche Elisabethenglück,7.27017,51.3769,"former coal mine in Witten, North Rhine-Westphalia Germany"
176,Q169779,item,,6.9925,51.4953,mine
177,Q169790,item,Zeche Ewald Fortsetzung,7.2638,51.6427,mine
178,Q169801,item,,7.07544,51.399,mine
179,Q169804,item,,7.2002,51.4466,mine
180,Q169815,item,,6.98852,51.4142,mine
181,Q169819,item,Zeche Franz Haniel,6.88028,51.5444,mine
182,Q169821,item,,7.60191,51.5036,mine
183,Q169824,item,Zeche Freie Vogel & Unverhofft,7.52111,51.4956,mine
184,Q169838,item,Zeche Friedlicher Nachbar,7.17778,51.4275,mine
185,Q169867,item,,7.27228,51.3377,mine
186,Q169876,item,,7.26168,51.4344,mine
187,Q169952,item,Imperial County,-115.35,33.04,"county in California, United States"
188,Q169974,item,Akşehir,31.416388888889,38.359166666667,"district in Konya Province, Turkey"
189,Q170027,item,University of London,-0.12888888888889,51.521111111111,"Federal research university in London, England"
190,Q170041,item,Golestan Province,54.4444,36.8393,province of Iran
191,Q170115,item,Srinagar,74.806111111111,34.091111111111,"city in Jammu and Kashmir, India"
192,Q170119,item,Berlin Palace,13.402777777778,52.5175,"palace in Berlin, Germany"
193,Q170143,item,Banat,20.9,45.7,geographical and historical region in Central and Eastern Europe
194,Q170162,item,Auerbach,13.100277777777778,48.80361111111111,municipality of Germany
195,Q170243,item,Rottenburg an der Laaber,12.027222222222,48.701944444444,municipality of Germany
196,Q170247,item,Jinan,116.98333333333,36.666666666667,"capital of Shandong province, China"
197,Q170287,item,Subotica,19.67,46.098333333333,city in Serbia
198,Q170295,item,Ionian Islands,20.5,38.5,group of islands in the Ionian Sea
199,Q170301,item,Mühlberg/Elbe,13.216666666667,51.433055555556,"town in Brandenburg state, Germany"
200,Q170313,item,Mbombela,30.985277777778,-25.465833333333,"city in Mpumalanga, South Africa"
201,Q170366,item,Ahvaz,48.68416666666667,31.31888888888889,"city in Khuzestan Province, Iran"
202,Q170415,item,Stara Zagora,25.634595,42.425668,city in Bulgaria
203,Q170433,item,Passaic,-74.128888888889,40.8575,"city in Passaic County, New Jersey, United States"
204,Q170454,item,Agartala,91.266666666667,23.833333333333,city in North-east India
205,Q170516,item,Calvary,35.229444444444,31.778611111111,site outside Jerusalem where Jesus was crucified according to the Gospels
206,Q170525,item,Agadir,-9.5833333333333,30.416666666667,city in Morocco
207,Q170540,item,Taubaté,-45.55,-23.033333333333,"medium-sized city in the State of São Paulo, in southeastern Brazil"
208,Q170570,item,Ilam Province,46.4226,33.6384,province of Iran
209,Q170633,item,Karakobis,20.61777778,-22.09555556,village in Botswana
210,Q170637,item,Nojane,20.295,-23.13388889,village in Botswana
211,Q170656,item,Bokaa,26.0167,-24.45,village in Kgatleng District of Botswana
212,Q170677,item,Struizendam,20.641111111111,-26.658333333333,village in Botswana
213,Q170690,item,Qabo,21.72861111,-21.06,village in Botswana
214,Q170692,item,Groote Laagte,21.21138889,-21.36027778,village in Botswana
215,Q170702,item,Bray,23.70727538,-25.4512005,village in Botswana
216,Q170711,item,Palapye,27.133333333333,-22.55,"place in Central District, Botswana"
217,Q170714,item,Ramotswa,25.816666666667,-24.866666666667,city in Botswana
218,Q170715,item,Kasane,25.153611111111,-17.798333333333,town in Botswana
219,Q170721,item,Maralaleng,22.68527778,-25.79444444,village in Botswana
220,Q170722,item,Mmathubudukwane,26.433333,-24.6,village in Botswana
221,Q170725,item,Molepolole,25.4951,-24.4066,"village in Kweneng District, Botswana"
222,Q170745,item,Modipane,26.123055555556,-24.620277777778,village in Botswana
223,Q170747,item,Sesung,24.9175,-24.102222222222,village in Botswana
224,Q170748,item,Oliphants Drift,26.84833333,-24.18111111,village in Botswana
225,Q170753,item,Mokubilo,26.47472222,-21.33555556,village in Botswana
226,Q170755,item,Mathangwane,27.336944444444,-20.995555555556,city
227,Q170772,item,Lejwana,25.539180555556,-25.40575,village in Botswana
228,Q170791,item,Lekgolobotlo,25.625,-24.9092,village in Botswana
229,Q170811,item,Mogapi,27.8349,-22.323,village in Botswana
230,Q170827,item,Matenge,27.262865,-20.853146,village in Botswana
231,Q170838,item,Union Station,-77.0621,38.8063,"historic train station in Alexandria, Virginia, United States"
232,Q170840,item,,24.8061,-24.654,village in Botswana
233,Q170845,item,,25.239083333333,-25.0315,human settlement
234,Q170852,item,Van Dorn Street Station,-77.1292,38.7993,"island platformed Washington Metro station in both Fairfax County and Alexandria, Virginia, United States"
235,Q170860,item,,27.544972222222,-21.461041666667,human settlement
236,Q170862,item,,25.292583333333,-25.706625,human settlement
237,Q170884,item,Rakhuna,25.591776,-25.55898,village in Botswana
238,Q170890,item,Dikgonnye,26.002804,-24.098327,village in Botswana
239,Q170905,item,,25.289582,-25.443321,village in Botswana
240,Q170910,item,,25.2432,-25.5544,human settlement
241,Q170922,item,Kgope,25.91472222,-24.31027778,village in Botswana
242,Q170934,item,Nswazwi,27.231336,-20.657957,village in Botswana
243,Q170947,item,Morutsha,22.8,-19.4,village in Botswana
244,Q170948,item,Mogonye,25.709648,-24.82524,village in Botswana
245,Q170952,item,Khonkhwa,23.859,-24.5597,village in Botswana
246,Q170958,item,,23.069224,-24.07942,village in Botswana
247,Q170962,item,,27.6289,-20.8432,village in Botswana
248,Q170964,item,Botalaote,26.8142,-23.1041,village in Botswana
249,Q170966,item,Matshelagabedi,27.66477,-21.121641,village in Botswana
250,Q170981,item,Sebina,27.25,-20.866667,ville
251,Q170991,item,Mosojane,27.519274,-20.622778,village in Botswana
252,Q170996,item,Galați,28.0425,45.423333333333,"county seat in Galați County, Romania"
253,Q171002,item,,25.173197,-25.189411,village in Botswana
254,Q171014,item,Tshesebe,27.585164,-20.726497,village in Botswana
255,Q171016,item,Chadibe,27.347777777778,-21.065277777778,human settlement
256,Q171027,item,Kalakamati,27.310694,-20.592353,village in Botswana
257,Q171051,item,,22.686,-18.7774,human settlement
258,Q171054,item,Mosweu,27.647,-22.6546,village in Botswana
259,Q171067,item,Metlobo,25.11388889,-25.4225,village in Botswana
260,Q171073,item,,27.360667,-20.759059,village in Botswana
261,Q171126,item,,23.4331,-19.8692,village in Botswana
262,Q171132,item,Cyclades,25.166666666667,37.0,Greek island group in the Aegean Sea
263,Q171133,item,Goshwe,27.20277778,-20.50888889,village in Botswana
264,Q171137,item,Ngarange,22.005,-18.39611111,village in Botswana
265,Q171148,item,Xaxa,21.0806,-19.8828,village in Botswana
266,Q171152,item,Ikoga,22.285,-18.86611111,village in Botswana
267,Q171168,item,Semitwe,27.0833,-20.9379,village in Botswana
268,Q171179,item,Mababe,23.99694444,-19.18027778,village in Botswana
269,Q171196,item,Toompea,24.74,59.436944444444,"hill in the central part of the city of Tallinn, Estonia"
270,Q171207,item,Garderbroek,5.67,52.1753,buurtschap
271,Q171217,item,De Ginkel,5.73,52.0389,
272,Q171224,item,Eugene,-123.08555555556,44.051944444444,"city in Lane County, Oregon, United States"
273,Q171244,item,Ganzert,5.4667,51.9667,buurtschap
274,Q171249,item,National Aerospace University – Kharkiv Aviation Institute,36.286,50.042,university
275,Q171279,item,Rashida,21.516666666667,29.016666666667,human settlement
276,Q171288,item,Albert Park Circuit,144.96833333333,-37.849722222222,motorsport track in Australia
277,Q171323,item,East Thrace,27.36666667,41.15361111,geographic region
278,Q171333,item,Võhma,25.557777777778,58.629166666667,"town and former municipality in Viljandi County, Estonia"
279,Q171356,item,Hungaroring,19.251111111111,47.582222222222,race track
280,Q171357,item,Kecskemét,19.6917,46.9074,city in the central part of Hungary
281,Q171358,item,Shanghai International Circuit,121.21972222222,31.338888888889,motorsport track in China
282,Q171374,item,Shackamaxon,-75.129,39.966,treaty between William Penn and the Delaware Indians
283,Q171387,item,Autódromo José Carlos Pace,-46.697222222222,-23.701111111111,motorsport venue in Brazil
284,Q171393,item,Wallachia,26.1,44.416666666667,historical and geographical region of Romania
285,Q171399,item,Fuji Speedway,138.92666666667,35.371666666667,motorsport track in Japan
286,Q171400,item,Circuit de Monaco,7.4205555555556,43.734722222222,street circuit around the harbour of the principality of Monaco
287,Q171402,item,Silverstone Circuit,-1.0169444444444,52.078611111111,"motor racing circuit on the Buckinghamshire and Northamptonshire border, UK"
288,Q171436,item,Uele,22.433333333333,4.15,river in the Democratic Republic of the Congo
289,Q171496,item,1981 Monaco Grand Prix,7.42133333,43.73465,Formula One motor race held in 1981
290,Q171551,item,South Khorasan Province,59.2164,32.8653,Province of Iran
291,Q171857,item,Agra Fort,78.021297222222,27.179583333333,fort in India
292,Q171943,item,Nanchang,115.887222,28.684167,"capital of Jiangxi province, China"
293,Q171944,item,1977 Monaco Grand Prix,7.42133333,43.73465,Formula One motor race held in 1977
294,Q172015,item,2009 Turkish Grand Prix,29.405,40.95166667,motor car race
295,Q172107,item,Polish–Lithuanian Commonwealth,19.93333333,50.05,"dualistic state, a bi-confederation, of Poland and Lithuania ruled by a common monarch, who was both the King of Poland and the Grand Duke of Lithuania"
296,Q172190,item,London Stadium,-0.016388888888889,51.538611111111,"stadium at the London Olympic Park, England"
297,Q172269,item,Pathankot district,75.643444,32.266814,"district in Punjab, India"
298,Q172385,item,Firozpur district,74.62,30.94,"district of Punjab, India"
299,Q172387,item,Mansa district,75.383333333333,29.983333333333,"district of Punjab, India"
300,Q172402,item,120 Collins Street,144.9695,-37.813833333333,"Skyscraper in Melbourne, Australia"
301,Q172417,item,Kota Shrine,138.22319444,37.16647778,"Shinto shrine in Niigata Prefecture, Japan"
302,Q172448,item,Nerekhta,40.583333333333,57.45,"human settlement in Nerekhtsky District, Kostroma Oblast, Russia"
303,Q172470,item,Neryungri,124.725,56.658333333333,"town in Sakha Republic, Russia"
304,Q172494,item,Faridkot district,74.76,30.67,"district of Punjab, India"
305,Q172637,item,Nizhnevartovsk,76.595,60.93888888888889,"city in Khanty-Mansi Autonomous Okrug, Russia"
306,Q172706,item,Ribafeita,-7.9938888888889,40.743611111111,civil parish in Viseu
307,Q172772,item,Curros,-7.6888888888889,41.643611111111,locality and former civil parish in Portugal
308,Q172869,item,Yas Marina Circuit,54.606075,24.470244444444,race track
309,Q172878,item,Nivelles-Baulers,4.3269444444444,50.621111111111,race track
310,Q172879,item,Charade Circuit,3.028937,45.7424969,motorsport track in France
311,Q172890,item,Circuito do Estoril,-9.3941666666667,38.750833333333,motorsport track in Portugal
312,Q172934,item,2009 British Grand Prix,-1.01694444,52.07861111,Formula One motor race held in 2009
313,Q173082,item,Dacia,26.5,45.7,Balkan kingdom of the Dacians (168 BC-106 AD)
314,Q173121,item,Santiago de Querétaro,-100.38805555556,20.588055555556,"municipal and state capital of Querétaro, Querétaro, Mexico"
315,Q173202,item,Donington Park,-1.3795555555556,52.829805555556,race track
316,Q173257,item,2000 Monaco Grand Prix,7.42133333,43.73465,Formula One motor race held in 2000
317,Q173338,item,Cetinje,18.921944444444,42.393333333333,city in Montenegro
318,Q173427,item,Gramazie,2.0969444444444,43.139166666667,"commune in Aude, France"
319,Q173438,item,Kalamansig,124.05,6.5666666666667,municipality of the Philippines in the province of Sultan Kudarat
320,Q173527,item,Knossos,25.163155555556,35.297961111111,ancient Minoan through Roman administrative center and city
321,Q173559,item,Cape Town Stadium,18.408611,-33.905556,"sports stadium in Cape Town, South Africa"
322,Q173608,item,Anahawan,125.25835833333333,10.274177777777778,municipality of the Philippines in the province of Southern Leyte
323,Q173616,item,South Aegean Region,26.2,36.8,one of the 13 regions of Greece
324,Q173620,item,North Aegean Region,26.0,38.7,one of the 13 regions of Greece
325,Q173627,item,Port Imperial Street Circuit,-74.0111,40.7769,auto racing track
326,Q173641,item,Hinundayan,125.25,10.35,municipality of the Philippines in the province of Southern Leyte
327,Q173731,item,Ghazni,68.423333333333,33.549166666667,city in Afghanistan
328,Q173830,item,Faryab,65.0,36.0,province of Afghanistan
329,Q173876,item,Teresa Carreño Cultural Complex,-66.897989,10.498778,"opera house in Caracas, Venezuela"
330,Q173977,item,Basville,2.3969444444444,45.871111111111,"commune in Creuse, France"
331,Q174002,item,Colombes,2.2522222222222,48.923611111111,"commune in Hauts-de-Seine, France"
332,Q174039,item,Tantangan,124.75,6.6166666666667,municipality of the Philippines in the province of South Cotabato
333,Q174090,item,Circuit de la Sarthe,0.20753055555556,47.949861111111,race course in Le Mans
334,Q174140,item,Sangster International Airport,-77.913333,18.503611,airport
335,Q174162,item,Casiguran,124.00805555555556,12.873055555555556,municipality of the Philippines in the province of Sorsogon
336,Q174235,item,Kanfanar,13.84,45.1233,municipality of Croatia
337,Q174254,item,Roman Catholic Diocese of Keningau,116.154,5.33306,diocese of the Catholic Church
338,Q174262,item,Saint Peter Port,-2.55,49.45,parish and port of Guernsey in the Channel Islands
339,Q174309,item,Lake Tazawa,140.66138888889,39.725,crater lake
340,Q174319,item,canton of Romilly-sur-Seine-1,3.710438,48.4756478056,canton of France (until March 2015)
341,Q174417,item,Kiamba,124.61666666667,5.9833333333333,municipality of the Philippines in the province of Sarangani
342,Q174455,item,Timbuktu Cercle,-3.3333333333333,20.833333333333,cercle of Mali
343,Q174570,item,London School of Economics and Political Science,-0.11666666666667,51.513888888889,"university in Westminster, UK"
344,Q174622,item,Písek,15.501801367522,50.15548102238,village in Hradec Králové District of Hradec Králové region
345,Q174630,item,Nousse,-0.8225,43.716944444444,"commune in Landes, France"
346,Q174631,item,Albis Pass,8.5222222222222,47.276111111111,mountain pass
347,Q174657,item,Bésingrand,-0.56805555555556,43.371944444444,"commune in Pyrénées-Atlantiques, France"
348,Q174919,item,Gamay,125.3,12.383333333333,municipality of the Philippines in the province of Northern Samar
349,Q174940,item,Laoang,125.01666666667,12.566666666667,municipality of the Philippines in the province of Northern Samar
350,Q175028,item,Syracuse Hancock International Airport,-76.106388888889,43.111111111111,airport
351,Q175041,item,Oeynhausen,16.292,47.9855,locality and cadastral municipality in Baden District
352,Q175100,item,Palapag,125.116,12.547,municipality of the Philippines in the province of Northern Samar
353,Q175144,item,Hai Van Tunnel,108.101692,16.186981,road tunnel
354,Q175163,item,San Antonio,124.279,12.414,municipality of the Philippines in the province of Northern Samar
355,Q175197,item,Kunovice,17.470110150223,49.044995756546,town in the Czech Republic
356,Q175206,item,Urbanya,2.305,42.638888888889,"commune in Pyrénées-Orientales, France"
357,Q175213,item,Altenburg,9.29062,51.2477,mountain in Hesse' Germany
358,Q175227,item,Pleujouse,7.2166666666667,47.416666666667,"village and former municipality in La Baroche in the canton of Jura, Switzerland"
359,Q175276,item,Kingdom of León,-5.67186,40.97782,(910-1230) historical state
360,Q175327,item,Vandenberg Space Force Base Space Launch Complex 5,-120.625,34.608,decommissioned rocket launch site at Vandenberg Space Force Base in the United States
361,Q175339,item,Villa Park,-1.8847222222222,52.509166666667,"association football venue in Birmingham, England"
362,Q175358,item,Swedish overseas colonies,30.333333333333332,59.93333333333333,
363,Q175360,item,Novotroitsk,58.298328,51.2009,town in Russia
364,Q175411,item,Herblingen Castle,8.6612,47.7335,"castle in Stetten in the canton of Schaffhausen,Switzerland"
365,Q175414,item,Qurum,58.516666666667,23.6,human settlement in Oman
366,Q175432,item,canton of Beauvoir-sur-Mer,-2.012895,46.91724925,canton of France (until March 2015)
367,Q175452,item,Novocherkassk,40.093888888889,47.422222222222,"city in Rostov Oblast, Russia"
368,Q175479,item,Makemo,-143.69833333333,-16.574166666667,"commune in Polynésie française, France"
369,Q175579,item,Jubiläumsgrat,11.0263,47.4209,
370,Q175647,item,Bjernede Church,11.625,55.4621,church
371,Q175656,item,Sara River,152.26666666667,-29.95,river in Australia
372,Q175721,item,Nanpi County,116.6965,38.0405,county
373,Q175741,item,Andros,24.933333333333,37.833333333333,Greek island in the Cyclades
374,Q175748,item,Coimbra-Cidade train station,-8.43205,40.208767,railway station in Portugal
375,Q175765,item,Babine Lake,-126.0,54.75,"lake in British Columbia, Canada"
376,Q175777,item,Muban Chombueng Rajabhat University,99.589053,13.621602,
377,Q175909,item,Pittsford,-77.516666666667,43.089722222222,"town in Monroe County, New York, United States"
378,Q175931,item,Wotho Atoll,165.96666666667,10.1,atoll
379,Q175986,item,Pujols,-0.031111111111111,44.806666666667,"commune in Gironde, France"
380,Q176013,item,"Kukowo, Pomeranian Voivodeship",17.17083333,54.54,village of Poland
381,Q176029,item,Fenland,0.049,52.575,"local government district in Cambridgeshire, England"
382,Q176056,item,Carreira,-8.55097,41.48049,"locality and former civil parish in Barcelos, Portugal"
383,Q176137,item,Fontenois-la-Ville,6.165,47.932222222222,"commune in Haute-Saône, France"
384,Q176150,item,Monterosi,12.30842,42.19698,Italian comune
385,Q176191,item,Lumparland,20.258333333333,60.116666666667,"municipality of Åland, Finland"
386,Q176201,item,Sund,20.116666666667,60.25,"municipality of Åland, Finland"
387,Q176216,item,Battle of Yellow Tavern,-77.4552,37.6599,battle of the American Civil War
388,Q176275,item,Saint-Médard-la-Rochette,2.1461111111111,46.043888888889,"commune in Creuse, France"
389,Q176286,item,Severomuysk,113.56805555556,56.183055555556,human settlement in Russia
390,Q176298,item,Friedhof Heerstraße,13.251,52.514,cemetery
391,Q176329,item,Ryck,13.456944444444,54.097222222222,river in Mecklenburg-Vorpommern
392,Q176348,item,Olyokminsk,120.43333333333,60.383333333333,town in the Sakha (Yakutia) Republic (Russia)
393,Q176365,item,Donzenac,1.5238888888889,45.227222222222,"commune in Corrèze, France"
394,Q176415,item,Léaz,5.8866666666667,46.098055555556,"commune in Ain, France"
395,Q176456,item,Fransèches,2.0497222222222,46.018611111111,"commune in Creuse, France"
396,Q176458,item,Til Barsip,38.0865,36.7014,"archaeological site in Aleppo, Syria"
397,Q176565,item,Sankt Lorenzen bei Scheifling,14.405833333333,47.145555555556,former municipality in Austria
398,Q176576,item,Capitán Oriel Lea Plaza Airport,-64.701325,-21.555736111111,airport
399,Q176603,item,Saint-Michel,-73.6,45.559722222222,"metro station on the Blue Line, Montreal, Quebec, Canada"
400,Q176708,item,Rott,12.3501,48.3497,"river in Bavaria, Germany"
401,Q176751,item,Grugahalle,6.99767,51.431,"multi-purpose hall in Essen, Germany"
402,Q176792,item,Silent Valley National Park,76.466666666667,11.133333333333,"national park in Kerala, India"
403,Q176874,item,Mladějov,15.232708961212,50.482136605739,village in Jičín District of Hradec Králové region
404,Q176922,item,Grüner Hügel (Bayreuth),11.57972222,49.95972222,
405,Q176958,item,Riols,2.7919444444444,43.505,"commune in Hérault, France"
406,Q176960,item,Severn River,151.883,-29.5833,"river in New South Wales, Australia"
407,Q176986,item,Limberg bei Wies,15.230555555556,46.744166666667,former municipality in Austria
408,Q177006,item,Oberrothenbach,12.473611111111,50.768055555556,human settlement in Germany
409,Q177024,item,Ljugarn,18.708815685453,57.334713578966,"urban area in Gotland Municipality, Sweden"
410,Q177206,item,Huish Park,-2.674881,50.950278,football stadium
411,Q177259,item,Poniszowice,18.466666666667,50.4,village of Poland
412,Q177272,item,Étival,5.7919444444444,46.507222222222,"commune in Jura, France"
413,Q177335,item,Pyramid of Tirana,19.82156667,41.32302222,building in Tirana
414,Q177362,item,Axstedt,8.773188888888889,53.35534166666667,"Municipality in the integrated community of Hambergen in the district of Osterholz in Lower Saxony, Germany"
415,Q177421,item,Martignas-sur-Jalle,-0.77555555555556,44.840555555556,"commune in Gironde, France"
416,Q177422,item,Marke,12.25,51.733055555556,human settlement in Germany
417,Q177467,item,Brignac-la-Plaine,1.3391666666667,45.188888888889,"commune in Corrèze, France"
418,Q177479,item,Oignies,2.9936111111111,50.469166666667,"commune in Pas-de-Calais, France"
419,Q177546,item,Biras,0.63888888888889,45.287777777778,"commune in Dordogne, France"
420,Q177579,item,,6.15111111,49.13277778,barracks
421,Q177657,item,Villars Cave,0.78518,45.44226,cave with prehistoric art
422,Q177683,item,Chaux-lès-Clerval,6.5077777777778,47.382777777778,"commune in Doubs, France"
423,Q177699,item,La Dornac,1.3597222222222,45.081944444444,"commune in Dordogne, France"
424,Q177865,item,Silver Bridge,-82.141111111111,38.845,bridge between West Virginia and Ohio
425,Q177888,item,Pavlovsk,30.433333333333,59.683333333333,city in Russia
426,Q177908,item,Pavlovsky Posad,38.65,55.783333333333,"human settlement in Pavlovo-Posadsky District, Moscow Oblast, Russia"
427,Q177912,item,Savignyplatz,13.3224,52.5058,square in Berlin
428,Q178065,item,Centre Georges Pompidou,2.352411,48.860653,"contemporary art museum in Paris, France"
429,Q178107,item,Stadio del Conero,13.526144,43.56425383,football stadium
430,Q178126,item,La Chaussade,2.235,45.988888888889,"commune in Creuse, France"
431,Q178238,item,Pestovo,35.816666666667,58.6,"human settlement in Pestovsky District, Novgorod Oblast, Russia"
432,Q178281,item,Henry County,-91.541944444444,40.986666666667,"county in Iowa, United States"
433,Q178297,item,rue René-Boulanger,2.35916667,48.86880556,"street in Paris, France"
434,Q178317,item,Oberkassel,7.1666666666667,50.713888888889,"quarter of Bonn, Germany"
435,Q178362,item,Augne,1.705,45.783611111111,"commune in Haute-Vienne, France"
436,Q178416,item,Saint Petersburg Conservatory,30.298262,59.925984,music school in Saint Petersburg
437,Q178441,item,Bonstorf,10.0483,52.8619,"village in the municipality of Südheide, Germany"
438,Q178469,item,Biafra,7.5,6.45,secessionist state in Nigeria
439,Q178485,item,Dautphe,8.56638,50.8571,river in Germany
440,Q178486,item,Olching,11.316666666667,48.2,"city in Bavaria, Germany"
441,Q178488,item,Kefalonia,20.5525,38.265,Greek island in the Ionian Sea
442,Q178507,item,Lunas,0.40305555555556,44.916944444444,"commune in Dordogne, France"
443,Q178591,item,Laingsburg Local Municipality,21.0,-33.25,"local municipality in the Western Cape, South Africa"
444,Q178617,item,Lower Fort Garry,-96.9319,50.1122,"human settlement in St. Andrews, Manitoba, Canada"
445,Q178619,item,Dresden Transport Museum,13.73959,51.0518,museum
446,Q178741,item,Great Salt Lake,-112.58333333333,41.166666666667,"salt lake in Utah, United States"
447,Q178753,item,Písečná,18.787385650733,49.574644895681,village in Frýdek-Místek District of Moravian Silesian region
448,Q178766,item,Derinda Township,-90.156666666667,42.239444444444,"in Jo Daviess County, Illinois"
449,Q178814,item,Stony Creek,144.843,-37.7958,river
450,Q178820,item,Nouic,0.91972222222222,46.06,"commune in Haute-Vienne, France"
451,Q178872,item,Saint-Louis,-14.8,16.216666666667,region of Senegal
452,Q178892,item,SS Montrose,1.5083333333333333,51.27361111111111,transatlantic ocean liner
453,Q178900,item,Buzachi Peninsula,51.663,45.124,"peninsula in Mangystau Region, Kazakhstan"
454,Q178912,item,Battle of Cape St. Vincent,-8.5636111111111,36.818055555556,naval battle on 16 January 1780
455,Q178913,item,Empire of Trebizond,39.730556,41.006389,Byzantine Greek state on Black Sea coast
456,Q178925,item,Gran Canaria,-15.5925,27.958611111111,Spanish island of the Canary Islands
457,Q178954,item,Istituto geografico militare,11.260037,43.777323,national mapping agency for Italy
458,Q178965,item,"Privlaka, Vukovar-Syrmia County",18.837752777778,45.194338888889,municipality of Croatia
459,Q178970,item,Cherokee Lake,-83.435,36.2149,"lake in Tennessee, United States"
460,Q179131,item,Tsugaru Peninsula,140.48333333,40.95,"peninsula in Aomori Prefecture, Japan"
461,Q179185,item,Shingū,130.44666666667,33.715277777778,"town in Kasuya district, Fukuoka prefecture, Japan"
462,Q179236,item,Burg Neulengbach,15.9103,48.1981,castle
463,Q179249,item,Zemst,4.4611,50.9828,"municipality in Flemish Brabant, Belgium"
464,Q179259,item,Crowborough,0.16,51.06,"town in the Wealden district of East Sussex, England"
465,Q179288,item,Battle of Kosovo,21.12,42.63,battle on 28th June 1389
466,Q179290,item,Martvili,42.37777777777778,42.41388888888889,city
467,Q179302,item,Pavia railway station,9.145,45.18888889,railway station
468,Q179318,item,2005 San Marino Grand Prix,11.71666667,44.34388889,Formula One motor race held in 2005
469,Q179343,item,Casium,33.07771,31.21817,
470,Q179354,item,2008 British Grand Prix,-1.01694444,52.07861111,Formula One motor race held in 2008
471,Q179361,item,"Petukhovo (town), Kurgan Oblast",67.883333333333,55.066666666667,"human settlement in Petukhovsky District, Kurgan Oblast, Russia"
472,Q179395,item,Fugu County,111.06193,39.02764,county
473,Q179403,item,2008 German Grand Prix,8.56583333,49.32777778,Formula One motor race held in 2008
474,Q179525,item,Pokachi,75.583333333333,61.75,"city in Khanty-Mansi Autonomous Okrug, Russia"
475,Q179535,item,canton of Saint-Lizier,1.13750001,43.00277779,canton of France (until March 2015)
476,Q179591,item,Battle of Cannae,16.1325,41.306388888889,"major battle of the Second Punic War, in which the army of Carthage defeated a larger army of the Roman Republic"
477,Q179608,item,Nanning,108.31501,22.81918,"capital of Guangxi, China"
478,Q179670,item,Battle of Gaugamela,43.25,36.36,decisive battle of Alexander the Great's invasion of the Persian Achaemenid Empire
479,Q179672,item,Guasca,-73.877222222222,4.8658333333333,Colombian municipality of the department of Antioquia
480,Q179734,item,Vatnajökull,-16.8,64.4,largest and most voluminous Icelandic glacier
481,Q179739,item,Sottunga,20.666666666667,60.133333333333,"municipality of Åland, Finland"
482,Q179781,item,"Birla Institute of Technology, Mesra",85.44,23.41222222,"Autonomous engineering and technology oriented institute of higher education located in Ranchi, Jharkhand, India"
483,Q179821,item,Gagny,2.5388888888889,48.881666666667,"commune in Seine-Saint-Denis, France"
484,Q179833,item,Sumgait,49.639722222222,40.591666666667,city in Azerbaijan
485,Q179843,item,Makhmur,43.58333333,35.78333333,village
486,Q179970,item,Kati Thanda–Lake Eyre,137.36666666667,-28.366666666667,endorheic lake in South Australia
487,Q179972,item,Andrés Quintana Roo Olympic Stadium,-86.83842222,21.15095,"football (soccer) stadium in Cancún, Mexico, home venue for Atlante FC"
488,Q180045,item,Hirta,-8.5808333333333,57.814833333333,"main island of the St Kilda archipelago, Outer Hebrides, Scotland, UK"
489,Q180052,item,Lohmühlenstraße,10.02,53.556944,"railway station in Hamburg, Germany"
490,Q180069,item,Coslédaà-Lube-Boast,-0.23527777777778,43.458888888889,"commune in Pyrénées-Atlantiques, France"
491,Q180144,item,,10.1608,48.3547,administrative community
492,Q180259,item,Vejano,12.096388888889,42.218055555556,Italian comune
493,Q180300,item,Schutter,11.4242,48.7571,river in Germany
494,Q180354,item,Belmont-sur-Vair,5.9072222222222,48.254722222222,"commune in Vosges, France"
495,Q180401,item,Getty Villa,-118.564,34.0451,"art museum in Pacific Palisades, Los Angeles"
496,Q180438,item,University of the Mediterranean - Aix Marseille II,5.35842,43.29244,former french university founded in 1973. Merged in 2012 with Aix-Marseille I and Aix-Marseille III to form Aix-Marseille University. (and hence abolished because of the merger)
497,Q180497,item,Zuikō Yonchōme Station,135.54461388889,34.752313888889,"metro station in Osaka, Osaka prefecture, Japan"
498,Q180500,item,Cornil,1.6916666666667,45.210555555556,"commune in Corrèze, France"
499,Q180529,item,Torre de Quintela,-7.78051944,41.29735556,
500,Q180611,item,Azpeitia,-2.2652777777778,43.181944444444,municipality of Spain
501,Q180754,item,Waigolshausen,10.133333333333,49.95,municipality of Germany
502,Q180765,item,Saint-Méard-de-Gurçon,0.18361111111111,44.909166666667,"commune in Dordogne, France"
503,Q180776,item,Švařec,16.3475,49.52111111,village in Žďár nad Sázavou District of Vysočina region
504,Q180792,item,Dietikon District,8.4166666666667,47.383333333333,"district of the canton of Zürich, Switzerland"
505,Q180824,item,Ustiprača,19.087,43.691,"village in Novo Goražde Municipality, Bosnia and Herzegovina"
506,Q180947,item,Riwoche Monastery,96.50277778,31.37083333,monastery
507,Q180964,item,Milhundos,-8.2644444444444,41.202777777778,locality and former civil parish in Portugal
508,Q180998,item,Kaltenmühlbach,12.3915,49.8112,river in Germany
509,Q181004,item,Madawaska County,-68.360611111111,47.421416666667,county in New Brunswick
510,Q181023,item,Langwasser Nord,11.121666666667,49.412222222222,"metro station in Nuremberg, Germany"
511,Q181089,item,Saint-Éloy-les-Tuileries,1.2925,45.446944444444,"commune in Corrèze, France"
512,Q181109,item,Acanthus,23.885983,40.393962,ancient Greek city
513,Q181125,item,Daglan,1.1930555555556,44.741944444444,"commune in Dordogne, France"
514,Q181127,item,Mechow,10.8,53.716666666667,municipality of Germany
515,Q181172,item,Tikal,-89.623613888889,17.222094444444,ruins of major ancient Maya city
516,Q181205,item,Albendiego,-3.0516666666667,41.227222222222,municipality of Spain
517,Q181214,item,Kollwesshöh,8.43389,52.4353,mountain in Germany
518,Q181297,item,Eidson Road,-100.48306,28.67417,"census designated place in Maverick County, Texas, United States"
519,Q181314,item,Wavre,4.6,50.716666666667,"city in Wallonia, Belgium"
520,Q181338,item,Wuppertal-Oberbarmen,7.22127,51.2742,"railway station in Wuppertal, Germany"
521,Q181367,item,Diocese of Baguio,120.598,16.4128,diocese of the Catholic Church in the Philippines
522,Q181454,item,,20.62477222,54.90533889,"human settlement in Zelenogradsky District, Kaliningrad Oblast, Russia"
523,Q181455,item,Committee for Cultural Relations with Foreign Countries,125.74306666667,39.007966666667,North Korean cultural exchange committee
524,Q181504,item,Hörstel,7.5861111111111,52.297222222222,municipality of Germany
525,Q181640,item,Cabara,-0.16,44.826944444444,"commune in Gironde, France"
526,Q181735,item,Bassanne,-0.09,44.559444444444,"commune in Gironde, France"
527,Q181801,item,Tanville,0.0080555555555556,48.568333333333,"commune in Orne, France"
528,Q181813,item,New York City Opera,-73.98375,40.77180556,American opera company based in New York City
529,Q181825,item,Holsterhausen,6.995278,51.440833,human settlement in Germany
530,Q181857,item,Bay of Fundy,-65.75,45.0,bay on the Atlantic coast of Canada noted for high tides
531,Q181882,item,County Carlow,-6.8333333333333,52.666666666667,county in Ireland
532,Q181892,item,Cavendish Laboratory,0.092011111111111,52.209263888889,Physics laboratory
533,Q181946,item,Argenteuil,2.2475,48.947777777778,"commune in Val-d'Oise, France"
534,Q181967,item,Adair County,-85.28,37.11,"county in Kentucky, United States"
535,Q181973,item,Yuba River,-121.597,39.1275,river in the United States of America
536,Q182009,item,Tekirdağ,27.516666666667,40.983333333333,city in Turkey
537,Q182085,item,2011 Lokomotiv Yaroslavl air disaster,40.12111111,57.55194444,aviation accident
538,Q182234,item,Castle Schenna,11.187435,46.691169,"château in South Tyrol, Italy"
539,Q182470,item,Spessart,9.4286111111111,49.9025,low mountain range in Germany
540,Q182503,item,canton of Hautmont,3.92047619,50.23111111,canton of France (until March 2015)
541,Q182516,item,Kathu,98.333055555556,7.9088888888889,"district in Phuket province, Thailand"
542,Q182520,item,Friedensdorf,12.064444444444,51.351944444444,"village and a former municipality in the Saalekreis district, Saxony-Anhalt, Germany"
543,Q182530,item,Battle of Badajoz,-6.96666667,38.86666667,battle
544,Q182541,item,Tooraweenah,148.91111111111,-31.438888888889,"small village just off the Newell Highway about 44 km (27 mi) north east of Gilgandra in the central west of New South Wales, Australia"
545,Q182578,item,Our Lady of Kibeho,29.553333333333335,-2.648888888888889,Marian apparition in Rwanda
546,Q182633,item,County Westmeath,-7.5,53.5,county in Ireland
547,Q182644,item,Van Buren County,-91.951666666667,40.75,"county in Iowa, United States"
548,Q182647,item,Khwarezm,59.326172222222,42.189608333333,region in Central Asia
549,Q182716,item,Hille,8.75,52.333055555556,"municipality in Minden-Lübbecke District, in North Rhine-Westphalia, Germany"
550,Q182719,item,Lake Turkana,36.016666666667,4.05,alkaline lake on the border of Ethiopia and Kenya
551,Q182737,item,Mercês,-9.1488888888889,38.716111111111,locality and former civil parish in Portugal
552,Q182778,item,Vrancea County,26.97,45.79,county in Romania
553,Q182806,item,Näfels,9.0627777777778,47.098888888889,"former municipality in the canton of Glarus, Switzerland"
554,Q182831,item,Battle of Schliengen,7.57722222,47.75555556,battle
555,Q182872,item,Fontainebleau,2.7016666666667,48.408888888889,"commune in Seine-et-Marne, France"
556,Q182901,item,Staré Hutě,17.277744069504,49.129123805373,village in Uherské Hradiště District of Zlín region
557,Q182903,item,Turzovka,18.625277777778,49.405,town in Slovakia
558,Q182920,item,Borinage,3.83333333,50.43333333,area in Belgium
559,Q182942,item,Cuando River,24.333333333333,-18.0,river in south-central Africa
560,Q182969,item,Tavignano,8.9272,42.2542,river in France
561,Q182979,item,Rahden,8.6166666666667,52.416666666667,"town in the Minden-Lübbecke district, in North Rhine-Westphalia, Germany"
562,Q182982,item,Chengyang District,120.39626,36.29958,"district of Qingdao, China"
563,Q183015,item,Samangan,68.0167,36.25,province of Afghanistan
564,Q183029,item,Sande,10.20757,59.59362,"former municipality in Vestfold, Norway"
565,Q183033,item,Diaoyutai State Guesthouse,116.32792,39.916896,hotel for heads of state and government in Beijing
566,Q183047,item,Old Fort,-83.150555555556,41.240555555556,"census designated place in Seneca County, Ohio, United States"
567,Q183077,item,Amedo,-7.3244444444444,41.258611111111,locality and former civil parish in Portugal
568,Q183084,item,Burbach,6.5177777777778,50.106666666667,"municipality in Rhineland-Palatinate, Germany"
569,Q183104,item,Feldkirch,9.5983333333333,47.238055555556,"city in Feldkirch District, Vorarlberg, Austria"
570,Q183124,item,Cochabamba,-66.1570139,-17.3935419,city in Bolivia
571,Q183162,item,Pochinok,32.45,54.4,town in Russia
572,Q183202,item,Teatro Regio,7.6877777777778,45.070555555556,"theater in Turin, Italy"
573,Q183213,item,Institut Polytechnique des Sciences Avancées,2.3925,48.81361111,french engineering college in aerospace
574,Q183231,item,Bank of England,-0.0885,51.5142,central bank of the United Kingdom
575,Q183298,item,Ibadan,3.9166666666667,7.3963888888889,capital city of Oyo State in Nigeria
576,Q183312,item,Franklin Lakes,-74.207777777778,41.006944444444,"borough in Bergen County, New Jersey"
577,Q183315,item,Storstrøm County,11.87527778,54.76527778,county of Denmark
578,Q183358,item,Egg,9.8955555555556,47.431944444444,"municipality in Bregenz District, Vorarlberg, Austria"
579,Q183429,item,Ruine Warenburg,8.4557,48.0451,castle ruin
580,Q183459,item,Gästrikland,16.793,60.557,historical province in Sweden
581,Q183539,item,County Louth,-6.5,53.833333333333,county in Ireland
582,Q183572,item,Vordingborg Municipality,11.910277777778,55.008333333333,municipality of Denmark
583,Q183608,item,,7.15307,51.4195,mine
584,Q183624,item,,7.07351,51.4276,mine
585,Q183641,item,,7.28066,51.3324,mine
586,Q183642,item,,7.44028,51.4582,mine
587,Q183664,item,,7.27555,51.373,mine
588,Q183668,item,,7.1621,51.4333,mine
589,Q183684,item,,7.07086,51.3987,mine
590,Q183696,item,Zeche Herbede,7.27016,51.417,former coal mine in Witten
591,Q183705,item,Mine Hermann,7.3182,51.4223,former coal mine in Witten
592,Q183710,item,,7.04571,51.4219,mine
593,Q183714,item,,7.44469,51.4853,mine
594,Q183743,item,,7.35565,51.5942,mine
595,Q183746,item,,7.01629,51.3751,mine
596,Q183747,item,,7.18986,51.4211,mine
597,Q183798,item,Zeche Kinderberg,6.911724,51.443956,former coal mine in Mülheim-Eppinghofen
598,Q183806,item,Zeche Kleine Windmühle,7.258,51.351,mine
599,Q183809,item,,7.24583,51.3561,mine
600,Q183815,item,,7.22894,51.3626,mine
601,Q183818,item,Zeche Kurl,7.59139,51.5586,mine
602,Q183837,item,,7.40615,51.4424,mine
603,Q183838,item,Zeche Lauseplatte,7.141362,51.436277,former hard coal mine
604,Q183855,item,Lohberg Mine,6.76278,51.5825,"mine in Dinslaken, Germany"
605,Q183863,item,,7.32912,51.4242,mine
606,Q183864,item,,7.32932,51.42562,mine
607,Q183882,item,Zeche Minister Stein,7.46417,51.5467,mine
608,Q183887,item,,7.0751,51.3987,mine
609,Q183914,item,,7.18746,51.4301,mine
610,Q183915,item,Zeche Pauline,6.99839,51.3744,mine
611,Q183928,item,Zeche Recklinghausen,7.19648,51.5609,mine
612,Q183968,item,,7.159,51.436,mine
613,Q183975,item,Steingatt mine,7.10037,51.4114,mine
614,Q183992,item,Zeche Ver. Trappe,7.33722,51.365,mine
615,Q184000,item,,7.27962,51.3704,mine
616,Q184002,item,Rumelia,21.333333333333,41.0,Ottoman possessions in the Balkans
617,Q184009,item,,7.01361,51.3803,mine
618,Q184015,item,,6.8973,51.4586,mine
619,Q184026,item,,7.3555,51.4151,mine
620,Q184031,item,,7.07513,51.3971,mine
621,Q184034,item,,7.34629,51.4353,mine
622,Q184079,item,,7.62833,51.5211,mine
623,Q184082,item,Vereinigte Rosen- und Blumendelle mine,6.94512,51.4446,mine
624,Q184087,item,,7.01529,51.4009,mine
625,Q184089,item,,7.2967,51.4024,mine
626,Q184096,item,Zeche Vereinigte Wiendahlsbank,7.415,51.4564,mine
627,Q184100,item,Zeche Verlorener Sohn,7.15417,51.4106,mine
628,Q184107,item,Zeche Vincenz,7.29847,51.4386,mine
629,Q184109,item,,6.07833,50.85194,mine in Germany
630,Q184116,item,Gary,-87.345555555556,41.580833333333,"city in Lake County, Indiana, United States"
631,Q184118,item,Zeche Werne,7.64222,51.6586,mine
632,Q184130,item,Zeche Wilhelmine Victoria,7.0529,51.5184,mine
633,Q184185,item,Proletarsk,41.719166666667,46.703055555556,"human settlement in Proletarsky District, Rostov Oblast, Russia"
634,Q184256,item,Zeddam,6.2583,51.9025,village in the Netherlands
635,Q184345,item,Viña del Mar,-71.5518,-33.0245,city in Chile
636,Q184355,item,Mojave Desert,-115.475,35.008333333333,desert in southwestern United States
637,Q184364,item,Kyzyl Kum,63.461388888889,42.441111111111,desert in Central Asia
638,Q184430,item,Zeelandic Flanders,3.8166666666667,51.333333333333,geographic region
639,Q184445,item,County Offaly,-7.5,53.25,county in Ireland
640,Q184506,item,,20.92,54.53,
641,Q184579,item,Bolton,-2.4333333333333,53.583333333333,"town in Greater Manchester, in the North West of England"
642,Q184632,item,Zehnhausen bei Rennerod,8.0597222222222,50.647222222222,municipality of Germany
643,Q184675,item,Zehntentrotte,8.578972,47.315334,
644,Q184687,item,,6.48269,50.8035,street
645,Q184709,item,Zehringen,12.0233,51.7653,human settlement in Germany
646,Q184714,item,Zehrental,11.5833,52.95,municipality of Germany
647,Q184837,item,Zeigerheim,11.297,50.7006,human settlement in Germany
648,Q184859,item,Zeiher Homberg,8.0939166666667,47.457919444444,mountain
649,Q184877,item,Zeilarn,12.833333333333,48.3,municipality of Germany
650,Q184919,item,Zeilfeld,10.6319,50.4142,human settlement in Germany
651,Q184921,item,Zeilgalerie,8.68,50.1142,"former shopping centre in Frankfurt am Main, Germany"
652,Q184947,item,Zeinried,12.3617,49.5,human settlement in Germany
653,Q184956,item,Zeiritzkampel,14.7267,47.4914,mountain
654,Q185032,item,Pannonian Basin,20.0,46.5,plain
655,Q185084,item,Siirt,41.945833333333,37.841666666667,city in Turkey
656,Q185125,item,Hamamatsu,137.73333333333,34.716666666667,city located in the western Shizuoka Prefecture of Japan
657,Q185257,item,Mormon Lake,-111.455,34.9475,"lake in Coconino County, Arizona, United States of America"
658,Q185291,item,Molucca Sea,125.41666666667,-0.41666666666667,sea located in the western Pacific Ocean
659,Q185380,item,Air France Flight 447,-30.561666666667,3.0658333333333,2009 plane crash of an Air France Airbus A330 in the Atlantic Ocean
660,Q185453,item,Multan,71.47111111111111,30.197777777777777,"city in Punjab, Pakistan"
661,Q185500,item,Taillecavat,0.15027777777778,44.646111111111,"commune in Gironde, France"
662,Q185568,item,catedral de la anunciacion de kazan,49.105803,55.799792,
663,Q185582,item,Knoxville,-83.95,35.966666666667,"county seat of Knox County, Tennessee, United States; third-largest city in Tennessee"
664,Q185601,item,Wood River,-90.0773261,38.8631433,"city in Illinois, United States"
665,Q185602,item,Jostedalsbreen National Park,6.9833333333333,61.683333333333,national park of Norway
666,Q185605,item,Antarctic Peninsula,-66.0,-69.0,peninsula
667,Q185678,item,Saint-Pierre,-56.343888888889,46.818888888889,"commune in Saint-Pierre-et-Miquelon, France"
668,Q185800,item,Laboratory of Molecular Biology,0.143,52.1763,"research institute in Cambridge, England"
669,Q185903,item,Pesche,14.2762,41.60552,Italian comune
670,Q185910,item,San Simeone Piccolo,12.3224,45.4402,"church in Venice, Italy"
671,Q186002,item,Cabeça Santa,-8.28084,41.13526,civil parish in Penafiel
672,Q186077,item,Mädelegabel,10.295833333333,47.3,mountain
673,Q186125,item,Madison Square Garden,-73.993611111111,40.750555555556,"multi-purpose indoor arena in New York City, located in Midtown Manhattan between 7th and 8th Avenues from 31st to 33rd Streets"
674,Q186234,item,Kufa,44.4,32.03,"city in Iraq, about 170 kilometres (110 mi) south of Baghdad, and 10 kilometres (6.2 mi) northeast of Najaf."
675,Q186254,item,Haskovo,25.55556,41.93465,city in Bulgaria
676,Q186285,item,University of Copenhagen,12.5725,55.679722222222,"public research university in Copenhagen, Denmark"
677,Q186287,item,Étauliers,-0.57361111111111,45.223888888889,"commune in Gironde, France"
678,Q186315,item,Béguey,-0.32333333333333,44.642777777778,"commune in Gironde, France"
679,Q186418,item,Kunduz Province,68.8,36.8,province of Afghanistan
680,Q186449,item,Crainvilliers,5.8325,48.146666666667,"commune in Vosges, France"
681,Q186491,item,Pezuls,0.8075,44.913333333333,"commune in Dordogne, France"
682,Q186498,item,Saint-Julien-de-Lampon,1.3630555555556,44.861111111111,"commune in Dordogne, France"
683,Q186527,item,Lemberg,8.74888,48.1509,"mountain in Baden-Württemberg, Germany"
684,Q186528,item,USS South Dakota,-96.762777777778,43.543333333333,South Dakota-class battleship
685,Q186538,item,Arzachena,9.387989,41.0801437,Italian comune
686,Q186558,item,Burgruine Araburg,15.8672,48.0111,rocca
687,Q186562,item,Cazillac,1.6111111111111,44.998055555556,"commune in Lot, France"
688,Q186823,item,Psebay,40.79,44.109166666667,"urban-type settlement in Krasnodar Krai, Russia"
689,Q186848,item,Kuks,15.889470536493,50.40155317044,village in Trutnov District of Hradec Králové region
690,Q186863,item,Gusterath,6.7172222222222,49.700833333333,municipality of Germany
691,Q186935,item,Ahuachapán,-89.845,13.921388888889,city in El Salvador
692,Q186984,item,Secretariat of Environment and Natural Resources,-99.179444444444,19.436388888889,federal ministry of Mexico
693,Q187032,item,Shatsk,41.7,54.033333333333,town in Russia
694,Q187039,item,Sapientza,21.705027777778,36.77175,island
695,Q187109,item,Linden,7.8513888888889,50.603333333333,"municipality in Westerwaldkreis, Germany"
696,Q187136,item,Luoyang,112.42447,34.65867,"prefecture-level city in Henan, China"
697,Q187151,item,Zeitz Cathedral,12.1264,51.0507,"church building in Burgenlandkreis, Saxony-Anhalt, Germany"
698,Q187177,item,Hanau pavilion,14.41259722,50.09364444,building
699,Q187182,item,Derby Highway,123.736131,-17.4738851,highway in Western Australia
700,Q187205,item,Bistrița,24.483333333333,47.133333333333,"capital of Bistrița-Năsăud County, Romania"
701,Q187249,item,Verbandsgemeinde Katzenelnbogen,7.9775,50.268055555556,"Verbandsgemeinde in Rhineland-Palatinate, Germany"
702,Q187252,item,Zekharia,34.945097222222,31.7098,human settlement
703,Q187366,item,Irabu Island,125.19083333333333,24.831666666666667,"island in Okinawa, Japan"
704,Q187373,item,Hamadan Province,48.5146,34.7982,Province of Iran
705,Q187379,item,Gaudeamus Hut,12.3247,47.5492,building
706,Q187455,item,Wehingen,6.50777,49.462,human settlement in Germany
707,Q187476,item,Zell,12.1564,47.5844,quarter in Kufstein District
708,Q187511,item,Saint-Jean-de-Paracol,2.1138888888889,42.935833333333,"commune in Aude, France"
709,Q187537,item,Saint-Romain-la-Virvée,-0.39944444444444,44.965555555556,"commune in Gironde, France"
710,Q187540,item,Zell am Moos,13.316944444444,47.900277777778,"municipality in Vöcklabruck District, Upper Austria, Austria"
711,Q187547,item,Zell am See-Süd,12.7933,47.3031,human settlement
712,Q187620,item,Zella,9.25556,50.8756,"named subdivision (Orstteil) in Willingshausen, Germany"
713,Q187636,item,Zella-Mehlis,10.666944444444,50.659722222222,municipality of Germany
714,Q187654,item,Villandraut,-0.37222222222222,44.457222222222,"commune in Gironde, France"
715,Q187666,item,Zellberg,11.871944444444,47.231111111111,"municipality in Schwaz District, Tyrol, Austria"
716,Q187712,item,Emirate of Abu Dhabi,54.0,23.666666666666668,emirate of the United Arab Emirates
717,Q187723,item,Zellengefängnis Lehrter Straße,13.36611111,52.52666667,
718,Q187728,item,Castans,2.4836111111111,43.406944444444,"commune in Aude, France"
719,Q187753,item,Győr-Moson-Sopron County,17.3,47.6,administrative district in the extreme north-west Hungary
720,Q187786,item,Montferrand-du-Périgord,0.86611111111111,44.750833333333,"commune in Dordogne, France"
721,Q187790,item,Trüfte,8.33686,51.0369,river in Germany
722,Q187805,item,Spokane,-117.4235,47.65719444444444,"city in and county seat of Spokane County, Washington, United States"
723,Q187827,item,Gmina Żagań,15.316666666667,51.616666666667,rural gmina of Poland
724,Q187834,item,Saône,4.81861111,45.72833333,river of France
725,Q187890,item,Strait of Kerch,36.65,45.35,strait connecting Azov and Black Seas
726,Q188015,item,Veliš Castle,15.31541389,50.41705278,castle
727,Q188033,item,Mont-de-Marsan,-0.50055555555556,43.890277777778,"commune in Landes, France"
728,Q188061,item,Vilnius County,25.283888888889,54.680277777778,county of Lithuania
729,Q188077,item,Foz do Sousa,-8.49639,41.09998,locality and former civil parish in Portugal
730,Q188085,item,Panevėžys County,24.370277777778,55.7375,county of Lithuania
731,Q188090,item,Sojeong-ri Station,127.15563333333,36.718644444444,train station in South Korea
732,Q188123,item,Battle of Villiers,2.51556,48.8172,battle
733,Q188127,item,Rärin,7.7591666666667,51.212777777778,human settlement in Germany
734,Q188179,item,Kuressaare,22.486111111111,58.253333333333,town on Saaremaa island in Estonia
735,Q188190,item,Élysée Palace,2.3163888888889,48.870277777778,official residence of the President of France
736,Q188258,item,Fezzan,13.4253,26.3328,historic region and former province of Libya
737,Q188281,item,Helmsdale,-3.66,58.12,"human settlement in Highland, Scotland, UK"
738,Q188283,item,Canton of Esch-sur-Alzette,6.0,49.5,canton in Luxembourg
739,Q188313,item,Blackburn,-2.4769,53.7449,"town in Lancashire, England"
740,Q188370,item,Marquette University,-87.9325,43.03916666666667,"private university in Milwaukee, Wisconsin, US"
741,Q188404,item,Puning Temple,117.94611111,41.01444444,"building in Chengde, China"
742,Q188489,item,Cape Breton Island,-60.67,46.295,"island in Nova Scotia, Canada"
743,Q188511,item,Guéret,1.8683333333333,46.170555555556,"commune in Creuse, France"
744,Q188550,item,Caux-et-Sauzens,2.2555555555556,43.225555555556,"commune in Aude, France"
745,Q188581,item,Uza,-1.2005555555556,44.033055555556,"commune in Landes, France"
746,Q188596,item,Tsar Bomba,54.981666666667,73.807222222222,hydrogen aerial bomb tested in 1961 by the Soviet Union; most powerful nuclear weapon ever created
747,Q188731,item,Rhodes,28.216666666667,36.433333333333,city in Greece
748,Q188781,item,Southern District,34.83333333,30.66666667,one of the six districts of Israel
749,Q188826,item,Auriat,1.6444444444444,45.873333333333,"commune in Creuse, France"
750,Q188855,item,Secheon Station,127.49111111111,36.336666666667,train station in South Korea
751,Q188892,item,Ribeirão Preto,-47.806666666667,-21.178333333333,"city in the state of São Paulo, Brazil"
752,Q188893,item,La Neuveville-devant-Lépanges,6.6627777777778,48.161666666667,"commune in Vosges, France"
753,Q188904,item,Gao,-0.05,16.266666666667,city in Mali
754,Q188982,item,Mount Erebus,167.28333333333,-77.533333333333,"volcano on Ross Island, Antarctica"
755,Q189013,item,Montferrier-sur-Lez,3.8572222222222,43.668611111111,"commune in Hérault, France"
756,Q189059,item,Mytilene,26.5536,39.1047,city on the Greek island of Lesbos
757,Q189079,item,2011 Van earthquake,43.486,38.628,earthquake in eastern Turkey
758,Q189187,item,Lespinassière,2.5372222222222,43.402777777778,"commune in Aude, France"
759,Q189258,item,Zeltschach,14.4431,46.9703,cadastral municipality in Austria
760,Q189352,item,Nineveh Governorate,42.466666666667,36.0,governorate of Iraq
761,Q189492,item,Zendscheid,6.6044444444444,50.099444444444,municipality of Germany
762,Q189592,item,County Antrim,-6.210756,54.94145,county of Northern Ireland
763,Q189654,item,Zennor,-5.568,50.192,"village and civil parish in Cornwall, England"
764,Q189663,item,Olympic Stadium of Athens,23.7875,38.036111111111,"olympic stadium in Athens, Greece"
765,Q189697,item,Karabük,32.633333333333,41.2,city in Turkey
766,Q189749,item,Ayerbe,-0.68916666666667,42.276666666667,municipality of Spain
767,Q189824,item,Bonvillet,6.0566666666667,48.099444444444,"commune in Vosges, France"
768,Q189863,item,Herzegovina,17.815,43.476944444444,southern region of Bosnia and Herzegovina
769,Q189907,item,Zentnerhaus,9.17186,46.9191,
770,Q189921,item,David Abashidze Stadium,43.02568,42.111213,stadium
771,Q189928,item,Berlin Central and Regional Library,13.392397,52.496486,library in Germany
772,Q189959,item,football at the 2012 Summer Olympics,-0.279722,51.555833,2012 edition of the association football torunaments during the Olympic Summer Games
773,Q190002,item,Sligo,-8.4833,54.2667,"main town in county Sligo, Ireland"
774,Q190098,item,Campoussy,2.4586111111111,42.710277777778,"commune in Pyrénées-Orientales, France"
775,Q190198,item,Apecchio,12.4183,43.55905,Italian comune
776,Q190310,item,Infantry School of the Reichswehr,11.549528,48.146947,military school of the German Reichswehr
777,Q190336,item,Minzu University of China,116.3175,39.948333333333,"university in Beijing, China"
778,Q190346,item,Sournia,2.4422222222222,42.727777777778,"commune in Pyrénées-Orientales, France"
779,Q190445,item,Central Air Force Museum,38.181389,55.842778,military museum
780,Q190477,item,Central Cemetery,18.63833333,50.30666667,cemetery of Gliwice
781,Q190479,item,,11.1665,51.7876,cemetery
782,Q190566,item,Cartoceto,12.8832,43.7643,Italian comune
783,Q190621,item,ZI Mannheim,8.46549,49.4923,hospital in Germany
784,Q190671,item,Markthalle I,13.4081,52.5226,
785,Q190678,item,County Fermanagh,-7.63,54.35,county of Northern Ireland
786,Q190690,item,Sălaj County,23.05,47.2,county in Romania
787,Q190702,item,Harghita County,25.8,46.36,county in Romania
788,Q190714,item,Viellenave-d'Arthez,-0.48111111111111,43.409444444444,"commune in Pyrénées-Atlantiques, France"
789,Q190718,item,Central Province,29.0,-14.0,province of Zambia
790,Q190774,item,Smederevo,20.928888888889,44.663333333333,City in Serbia
791,Q190856,item,Zentralverschiebebahnhof Wien-Kledering,16.4292,48.1458,railway station in Austria
792,Q190895,item,Villelongue-dels-Monts,2.9036111111111,42.525277777778,"commune in Pyrénées-Orientales, France"
793,Q190914,item,Guinarthe-Parenties,-0.94861111111111,43.383333333333,"commune in Pyrénées-Atlantiques, France"
794,Q190964,item,Cruzy,2.9405555555556,43.355833333333,"commune in Hérault, France"
795,Q191087,item,Acheron,20.476111111111,39.236111111111,river of northwest Greece
796,Q191097,item,Tachov,12.633709213451,49.795398066933,town in the Pilsen Region of the Czech Republic
797,Q191120,item,Jēkabpils,25.866388888889,56.4975,city in Latvia
798,Q191177,item,Zentrum Innere Führung,7.61903,50.3381,military unit
799,Q191198,item,Zentrum für Demokratie Aarau,8.04018,47.39823,
800,Q191294,item,La Douze,0.86361111111111,45.061388888889,"commune in Dordogne, France"
801,Q191314,item,Godavari River,73.5275,19.93,river in India
802,Q191385,item,Tsepina,24.124171,42.085771,"castle and town in the western Rhodope mountains, southern Bulgaria, now in ruins"
803,Q191399,item,Zeppelin Museum Zeppelinheim,8.6146,50.035,museum
804,Q191426,item,Zeppelin University,9.43388889,47.65861111,private university
805,Q191428,item,Zeppelinallee,8.65199,50.1259,"street in Frankfurt am Main, Germany"
806,Q191449,item,Zeppernick,12.022222222222,52.125555555556,human settlement
807,Q191454,item,Saint-Martial-Entraygues,1.9733333333333,45.120555555556,"commune in Corrèze, France"
808,Q191461,item,Tsyerabun′,23.524444444444,52.170833333333,village in Belarus
809,Q191501,item,Esperanza,124.04166666666667,11.736944444444445,municipality of the Philippines in the province of Masbate
810,Q191566,item,West Siberian Plain,76.0,62.0,large plain that occupies the western portion of Siberia
811,Q191616,item,Békés County,21.044722,46.7375,county of Hungary
812,Q191636,item,Uson,123.7834,12.2253,municipality of the Philippines in the province of Masbate
813,Q191651,item,Masbate City,123.62472222222222,12.373888888888889,city of the Philippines and capital of the province of Masbate
814,Q191652,item,Santo André,-46.533333333333,-23.657222222222,Brazilian municipality located in the Metropolitan Region of São Paulo
815,Q191685,item,Zerlach,15.663788888889,46.957011111111,former municipality in Austria
816,Q191738,item,Konia Kshetra,82.24305556,25.23361111,geographic region
817,Q191739,item,Florence Cathedral,11.25653,43.773464,"cathedral in Florence, Italy"
818,Q191741,item,Le Chamossaire,7.0613055555556,46.326666666667,mountain
819,Q191763,item,Itsukushima Shrine,132.31972222222,34.295833333333,"Shinto shrine in Hiroshima Prefecture, Japan"
820,Q191792,item,Bayan-Ölgii Province,89.5,48.3,province of Mongolia
821,Q191813,item,Põlva County,27.083333333333,58.083333333333,county of Estonia
822,Q191883,item,Zerninsee,14.1959,53.8994,
823,Q192017,item,Monument Valley,-110.1,36.983333333333,basin of the Colorado Plateau on the Arizona–Utah border in the western United States
824,Q192086,item,Saint-Étienne-de-Puycorbier,0.32944444444444,45.0925,"commune in Dordogne, France"
825,Q192146,item,Liberdade District,-46.631892,-23.566644,district of São Paulo city
826,Q192155,item,Kotka,26.945833333333,60.466666666667,city in the region of Kymenlaakso in Finland
827,Q192176,item,Bender,29.483333333333,46.833333333333,city in Moldova
828,Q192180,item,Latvian Soviet Socialist Republic,24.1333,56.9667,republic of the Soviet Union (1940-1991)
829,Q192265,item,Focșani,27.179722222222,45.699722222222,"city in Vrancea County, Romania"
830,Q192273,item,Karelia,32.0,63.0,historical region in Northern Europe
831,Q192277,item,Ladaux,-0.24444444444444,44.700555555556,"commune in Gironde, France"
832,Q192312,item,Molandier,1.7158333333333,43.246111111111,"commune in Aude, France"
833,Q192426,item,Le Val-d'Ajol,6.4833333333333,47.925,"commune in Vosges, France"
834,Q192435,item,Tripolitania,13.183333,32.9,historic region and former province of Libya
835,Q192438,item,Bègles,-0.54888888888889,44.807777777778,"commune in Gironde, France"
836,Q192458,item,Payra-sur-l'Hers,1.855,43.266111111111,"commune in Aude, France"
837,Q192473,item,Battle of Adrianople,26.6,41.8,Battle between Roman Empire and Goths (378)
838,Q192517,item,Boulder,-105.29277777778,40.019444444444,"City in Colorado, United States"
839,Q192531,item,Peace Arch Park,-122.7575,49.001944444444,international park
840,Q192540,item,Streymoy,-7.019444,62.131667,island in the Faroe Islands
841,Q192548,item,Saint-Émilion,-0.15583333333333,44.892777777778,"commune in Gironde, France"
842,Q192557,item,DreamWorks,-118.285096,34.157326,California film studio
843,Q192558,item,Nova Priluka,28.701111111111,49.376944444444,"village in Lypovets Raion, Vinnytsia Oblast, Ukraine"
844,Q192567,item,Ili River,74.133333333333,45.4,river in Kazakhstan and China
845,Q192606,item,Leskovac,21.94611,42.99806,city in Jablanica District in southern Serbia
846,Q192646,item,Panganiban,124.3,13.9,municipality of the Philippines in the province of Catanduanes
847,Q192684,item,Cubiérettes,3.7872222222222,44.459166666667,"commune in Lozère, France"
848,Q192702,item,Ústí nad Labem Region,13.85,50.5,region of the Czech Republic
849,Q192714,item,Cengkareng,106.72706550675896,-6.150160407975435,"district in Jakarta Barat Administrative City, Indonesia"
850,Q192738,item,Gulf of Taranto,17.276944444444,39.885,bay
851,Q192759,item,Western Finland Province,24.0,62.0,province of Finland between 1997–2009
852,Q192807,item,Ramat Gan,34.823541,32.070007,city in the Tel Aviv District of Israel
853,Q192815,item,Les Salces,3.1619444444444,44.533888888889,"commune in Lozère, France"
854,Q192820,item,River Shannon,-7.919,54.2347,longest river in Ireland
855,Q192945,item,Govi-Altai Province,95.5,45.5,province of Mongolia
856,Q192980,item,Lamia,22.431111111111,38.897222222222,City in central Greece
857,Q192981,item,Minaret of Jam,64.515888,34.396386,minaret in Afghanistan
858,Q192987,item,Cilandak,106.8,-6.3,"subdistrict of South Jakarta, Jakarta, Indonesia."
859,Q193029,item,Pesanggrahan,106.7565,-6.2401,"district in Jakarta Selatan Administrative City, Indonesia"
860,Q193082,item,Svishtov,25.356901,43.611301,town in Bulgaria
861,Q193093,item,Platonic Academy,23.708059,37.992359,"ancient philosophical, research and educative center"
862,Q193113,item,Bagnols-les-Bains,3.6652777777778,44.505833333333,"former commune in Lozère, France"
863,Q193154,item,Saint-Domet,2.3,46.043333333333,"commune in Creuse, France"
864,Q193214,item,Caria,28.0,37.5,historical region in Anatolia
865,Q193215,item,Château de Chenonceau,1.0706,47.325,"castle spanning the River Cher in the Loire Valley, France"
866,Q193246,item,Vayres,0.81055555555556,45.759166666667,"commune in Haute-Vienne, France"
867,Q193253,item,Molokaʻi,-157.01,21.135,"island in Maui and Kalawao counties in Hawaii, United States"
868,Q193256,item,Montluçon,2.6025,46.34,"commune in Allier, France"
869,Q193305,item,Estoril,-9.39773,38.70571,locality and former civil parish in Portugal
870,Q193306,item,Falaise,-0.1975,48.897222222222,"commune in Calvados, France"
871,Q193375,item,Tate Modern,-0.099166666666667,51.507777777778,"modern art gallery located in Bankside, London, England"
872,Q193438,item,Shkodër County,19.75,42.166666666667,county of Albania
873,Q193474,item,Carniola,14.5,46.05,historical region
874,Q193575,item,Safonovo,33.25,55.1,town and administrative center of Safonovsky District of Smolensk Oblast in central Russia
875,Q193638,item,Shibuya-ku,139.70138888889,35.658333333333,"special ward of Tokyo, Japan"
876,Q193641,item,Sebezh,28.483333333333,56.283333333333,town in Russia
877,Q193652,item,Severo-Kurilsk,156.11666666667,50.683333333333,town in Russia
878,Q193677,item,Angra do Heroísmo,-27.215277777778,38.655833333333,municipality and city in Portugal
879,Q193721,item,Tábor,14.657835974031,49.414485338494,town in the South Bohemian Region of the Czech Republic
880,Q193773,item,Routier,2.1266666666667,43.107777777778,"commune in Aude, France"
881,Q193790,item,Elbasan County,20.166666666667,41.0,county of Albania
882,Q193930,item,Seltso,34.1,53.369444444444,town in Oblast Bryansk in Russia
883,Q193945,item,Ighil Ali,4.4666666666667,36.333333333333,municipality of Algeria
884,Q194073,item,Eastern Finland Province,28.0,62.0,province
885,Q194103,item,Aventine Hill,12.483333333333,41.883333333333,"one of the seven hills of Rome, Italy"
886,Q194130,item,Verneuil-sur-Vienne,1.1266666666667,45.848888888889,"commune in Haute-Vienne, France"
887,Q194144,item,Mayreville,1.8397222222222,43.239444444444,"commune in Aude, France"
888,Q194184,item,Waly,5.1066666666667,49.019444444444,"commune in Meuse, France"
889,Q194206,item,Sept-Frères,-1.0294444444444,48.8625,"former commune in Calvados, France"
890,Q194263,item,Tatra mountains,19.908333333333,49.177777777778,mountain range in Europe
891,Q194275,item,Saint-Christoly-Médoc,-0.82555555555556,45.356111111111,"commune in Gironde, France"
892,Q194336,item,Saint-Martin-de-Lerm,-0.041388888888889,44.648055555556,"commune in Gironde, France"
893,Q194347,item,15 Penn Plaza,-73.9906,40.7497,proposed skyscraper
894,Q194396,item,Daignac,-0.24944444444444,44.799444444444,"commune in Gironde, France"
895,Q194407,item,Saulxures-lès-Nancy,6.2469444444444,48.688888888889,"commune in Meurthe-et-Moselle, France"
896,Q194416,item,Montagrier,0.47666666666667,45.270555555556,"commune in Dordogne, France"
897,Q194434,item,Saint-Vincent-de-Paul,-0.46916666666667,44.954166666667,"commune in Gironde, France"
898,Q194504,item,Church of the Nativity,35.20758333333333,31.704305555555557,basilica in Bethlehem
899,Q194533,item,National Museum in Poznań,16.928902,52.40865,"art museum in Poland, town of Poznan"
900,Q194560,item,Cénac,-0.46027777777778,44.779722222222,"commune in Gironde, France"
901,Q194644,item,Sutton Place,-73.96030557,40.75784723,"neighborhood of Manhattan, New York City"
902,Q194668,item,Le Change,0.89388888888889,45.193888888889,"former commune in Dordogne, France"
903,Q194693,item,Slavgorod,78.65,53.0,town in Russia
904,Q194871,item,IBC Tower,8.6425,50.1144,
905,Q194939,item,Gorzewnica,20.3833,52.3667,village of Poland
906,Q194942,item,Yanling County,113.77017,26.49204,county
907,Q194946,item,Viled,47.355833333333,61.34,"river in Arkhangelsk Oblast, Russia"
908,Q194956,item,Vilar de Nantes,-7.44695,41.71038,civil parish in Chaves
909,Q194971,item,Saucède,-0.68583333333333,43.269444444444,"commune in Pyrénées-Atlantiques, France"
910,Q194993,item,Peaugres,4.7283333333333,45.286388888889,"commune in Ardèche, France"
911,Q195042,item,Bentayou-Sérée,-0.065,43.393333333333,"commune in Pyrénées-Atlantiques, France"
912,Q195045,item,Ban-sur-Meurthe-Clefcy,6.9791666666667,48.1725,"commune in Vosges, France"
913,Q195068,item,Sanak Islands,-162.601,54.4097,island
914,Q195098,item,Frouard,6.1288888888889,48.760555555556,"commune in Meurthe-et-Moselle, France"
915,Q195099,item,Colombier-le-Cardinal,4.7425,45.266944444444,"commune in Ardèche, France"
916,Q195299,item,Cadillon,-0.1575,43.526944444444,"commune in Pyrénées-Atlantiques, France"
917,Q195354,item,Ditzum Church (Ditzum),7.27974,53.3151,church
918,Q195356,item,Dowa District,34.0,-13.583333333333,district of Malawi
919,Q195377,item,Arendal Station,8.770008,58.46493,"railway station in Arendal, Norway"
920,Q195389,item,Hamun-e Jaz Murian,58.546111,27.490833,lake in Iran
921,Q195406,item,Eidsvoll station,11.24708333,60.32945556,"railway station in Eidsvoll, Norway"
922,Q195421,item,Saint-Laurent-Bretagne,-0.19916666666667,43.383333333333,"commune in Pyrénées-Atlantiques, France"
923,Q195432,item,Tokyo DisneySea Hotel MiraCosta,139.888,35.627,hotel
924,Q195489,item,Pulupandan,122.8,10.516666666667,municipality of the Philippines in the province of Negros Occidental
925,Q195510,item,Połoski,23.45,51.95,village of Poland
926,Q195571,item,Domvallier,6.0833333333333,48.308888888889,"commune in Vosges, France"
927,Q195587,item,Çineköy inscription,35.2603,36.7983,
928,Q195592,item,Škrle,13.5317,50.415,village in Chomutov District of Ústí nad Labem region
929,Q195626,item,Brochów-Kolonia,20.289722222222,52.313888888889,village of Poland
930,Q195652,item,Wilcze Tułowskie,20.3009,52.3492,village of Poland
931,Q195656,item,Sauveterre-de-Béarn,-0.93972222222222,43.399444444444,"commune in Pyrénées-Atlantiques, France"
932,Q195669,item,Khuan Niang,100.35777777778,7.1869444444444,"district in Songkhla province, Thailand"
933,Q195684,item,Yahiko Shrine,138.826,37.7066,"Shinto shrines in Niigata Prefecture, Japan"
934,Q195736,item,Pohjois-Espoo,24.71,60.28,major district of Espoo
935,Q195755,item,Laguindingan,124.45,8.5833333333333,municipality of the Philippines in the province of Misamis Oriental
936,Q195832,item,Arendal Line,8.74236944,58.57255,railway line
937,Q195834,item,Medina,125.01666666667,8.9166666666667,municipality of the Philippines in the province of Misamis Oriental
938,Q195864,item,Dontreix,2.5594444444444,45.986944444444,"commune in Creuse, France"
939,Q195882,item,Wilshire/Normandie,-118.3,34.0618,Los Angeles Metro station
940,Q195886,item,Taedonggang-guyok,125.78925277778,39.035336111111,district of Pyongyang
941,Q195905,item,Canada House,-0.1291,51.5077,building in London
942,Q195931,item,"Mandi, Himachal Pradesh",76.92,31.72,city in Mandi District in the Indian state of Himachal Pradesh.
943,Q195937,item,Villanueva,124.78333333333,8.5833333333333,municipality of the Philippines in the province of Misamis Oriental
944,Q196047,item,Monegros Desert,-0.18333333,41.63333333,semi-desert in Spain
945,Q196062,item,Kilju County,129.32778,40.96417,county of North Korea
946,Q196082,item,Saint-Maurice-les-Brousses,1.2361111111111,45.699444444444,"commune in Haute-Vienne, France"
947,Q196207,item,Plaridel,123.7101,8.6214,municipality of the Philippines in the province of Misamis Occidental
948,Q196241,item,Saint-Papoul,2.0361111111111,43.331111111111,"commune in Aude, France"
949,Q196250,item,Anaheim,-118.189,33.7826,Los Angeles Metro station
950,Q196286,item,Saint-Just,4.1138888888889,43.657222222222,"commune in Hérault, France"
951,Q196293,item,Hollywood/Western,-118.309,34.1015,Los Angeles Metro station
952,Q196297,item,Pacific,-118.194,33.7729,Los Angeles Metro station
953,Q196302,item,Hawthorne/Lennox,-118.353,33.9335,Los Angeles Metro station
954,Q196340,item,Avricourt,6.8058333333333,48.644722222222,"commune in Meurthe-et-Moselle, France"
955,Q196346,item,León Cortés Castro,-84.062347,9.6944066,canton of Costa Rica
956,Q196370,item,Orthevielle,-1.1475,43.552222222222,"commune in Landes, France"
957,Q196377,item,Sovetsky,63.566666666667,61.366666666667,"human settlement in Sovetsky District, Khanty-Mansi Autonomous Okrug, Russia"
958,Q196378,item,Sokol,40.116666666667,59.466666666667,"town in the center of Vologda Oblast, Russia"
959,Q196379,item,Treigny,3.1841666666667,47.550833333333,"commune in Yonne, France"
960,Q196386,item,Solnechnogorsk,36.995,56.184444444444,"human settlement in Solnechnogorsky District, Moscow Oblast, Russia"
961,Q196392,item,Sorochinsk,53.15,52.433333333333,"human settlement in Sorochinsky District, Orenburg Oblast, Russia"
962,Q196400,item,Sosnovka,51.283333333333,56.25,"city in Kirov Oblast, Russia"
963,Q196444,item,Saint-Aubin-du-Cormier,-1.3986111111111,48.259444444444,"commune in Ille-et-Vilaine, France"
964,Q196445,item,Soubès,3.3461111111111,43.766666666667,"commune in Hérault, France"
965,Q196448,item,Plumergat,-2.9172222222222,47.741944444444,"commune in Morbihan, France"
966,Q196478,item,Irodouër,-1.9508333333333,48.249722222222,"commune in Ille-et-Vilaine, France"
967,Q196481,item,Staritsa,34.935555555556,56.5075,"town in Tver Oblast, Russia"
968,Q196483,item,Starodub,32.766666666667,52.583333333333,"human settlement in Starodub Urban Okrug, Bryansk Oblast, Russia"
969,Q196504,item,Les Ableuvenettes,6.1861111111111,48.190277777778,"commune in Vosges, France"
970,Q196530,item,Grandsaigne,1.9180555555556,45.49,"commune in Corrèze, France"
971,Q196533,item,Sychyovka,34.273611111111,55.825277777778,town and administrative center of Sychyovsky District of Smolensk Oblast in central Russia
972,Q196548,item,Sérignac-sur-Garonne,0.485,44.213611111111,"commune in Lot-et-Garonne, France"
973,Q196557,item,Cendrieux,0.82277777777778,44.996111111111,"former commune in Dordogne, France"
974,Q196564,item,Chancé,-1.38,48.035833333333,"commune in Ille-et-Vilaine, France"
975,Q196591,item,Lagruère,0.24944444444444,44.394166666667,"commune in Lot-et-Garonne, France"
976,Q196609,item,Taingy,3.4038888888889,47.616111111111,"former commune in Yonne, France"
977,Q196616,item,Tarusa,37.183333333333,54.716666666667,town in Russia
978,Q196637,item,Teberda,41.75,43.45,town in Russia
979,Q196645,item,Temnikov,43.216666666667,54.633333333333,town in Russia
980,Q196652,item,Saint-Hilaire-du-Bois,-0.080555555555556,44.6625,"commune in Gironde, France"
981,Q196660,item,Toguchin,84.383333333333,55.233333333333,"human settlement in Toguchinsky District, Novosibirsk Oblast, Russia"
982,Q196694,item,Troitsk,61.566666666667,54.083333333333,"town in Chelyabinsk Oblast, Russia"
983,Q196729,item,Tynda,124.71666666667,55.15,town in Russia
984,Q196777,item,Zervi,21.81944444,40.85694444,human settlement
985,Q196778,item,Uglegorsk,142.03333333333,49.066666666667,"human settlement in Uglegorsky District, Sakhalin Oblast, Russia"
986,Q196789,item,Zervochoria,23.45277778,40.50027778,place in Greece
987,Q196791,item,Zervreilahorn,9.0613888888889,46.550555555556,mountain
988,Q196850,item,Zetel,7.9741666666667,53.419722222222,municipality of Germany
989,Q196915,item,Zetzscha,12.4186,51.0164,human settlement in Germany
990,Q196974,item,Zeugitana,10.31666667,36.85,late Roman province
991,Q197014,item,Cambo-les-Bains,-1.4016666666667,43.357777777778,"commune in Pyrénées-Atlantiques, France"
992,Q197027,item,Zeutsch,11.5042,50.7539,human settlement in Germany
993,Q197030,item,Zeutschach,14.366666666667,47.070833333333,former municipality in Austria
994,Q197040,item,Zeuzleben,10.076666666667,49.976111111111,"neighborhood in Werneck, Germany"
995,Q197046,item,Zeven Geest,9.33143,53.2909,landscape
996,Q197061,item,Zevenhuizen-Moerkapelle,4.5808,52.0264,"former municipality in South Holland, the Netherlands"
997,Q197074,item,Zeyern,11.4086,50.2645,human settlement in Germany
998,Q197100,item,Zeyzoun Dam,36.36666667,35.71666667,architectural structure
999,Q197112,item,,9.59861111,47.76222222,hospital in Germany
1000,Q197123,item,Zgłowiączka,19.065833333333,52.664166666667,river in Poland
1001,Q197124,item,Zhabei District,121.45509,31.24909,"historical district of Shanghai, China"
1002,Q197144,item,Zhang Fei Temple,108.69916666667,30.912222222222,sacred architecture
1003,Q197150,item,Hasparren,-1.3047222222222,43.384444444444,"commune in Pyrénées-Atlantiques, France"
1004,Q197244,item,Lasse,-1.26,43.157222222222,"commune in Pyrénées-Atlantiques, France"
1005,Q197376,item,Uzein,-0.4325,43.399166666667,"commune in Pyrénées-Atlantiques, France"
1006,Q197382,item,Fokino,34.416666666667,53.45,"human settlement in Dyatkovsky District, Bryansk Oblast, Russia"
1007,Q197408,item,Zhanhua District,118.13,37.7,district of china
1008,Q197490,item,Zhaocun,108.49694,34.55722,archaeological site
1009,Q197594,item,Zheng'an County,107.43901,28.55355,county
1010,Q197637,item,Tsimlyansk,42.094722222222,47.646666666667,"human settlement in Tsimlyansky District, Rostov Oblast, Russia"
1011,Q197700,item,Zhengyang County,114.38303,32.60518,county in Zhumadian
1012,Q197705,item,Zhengzhou Greenland Plaza,113.72107,34.771714,A skyscraper in Zhengzhou
1013,Q197712,item,Zhenhai District,121.70961,29.95481,"district of Zhejiang Province, China"
1014,Q197758,item,Zhenyuan County,108.41757,27.05166,county
1015,Q197776,item,Zhidoi County,95.6142,33.85409,county
1016,Q197820,item,Ossenx,-0.81611111111111,43.372222222222,"commune in Pyrénées-Atlantiques, France"
1017,Q197834,item,Zhongguancun,116.30894444,39.98116667,"tech hub in Beijing, China"
1018,Q197873,item,Zhongnan Mountains,109.0192,33.9317,"mountain range in Shaanxi, China"
1019,Q197905,item,Williams Way,-5.34083,36.14333,Road tunnel in Gibraltar
1020,Q197915,item,Maquela Airport,15.133333,-6.033333,airport serving  Maquela en Angola
1021,Q197933,item,Faleolo International Airport,-172.00833333333,-13.829722222222,airport
1022,Q197937,item,Zhongyuan District,113.60728,34.7494,"district of Henan Province, China"
1023,Q197953,item,Mendive,-1.1347222222222,43.126111111111,"commune in Pyrénées-Atlantiques, France"
1024,Q198012,item,Brouqueyran,-0.175,44.483888888889,"commune in Gironde, France"
1025,Q198058,item,Zhouning County,119.33301,27.10595,county
1026,Q198067,item,Zhouyuan Site,107.842698,34.494169,archaeological site
1027,Q198070,item,,120.40575,31.86463,town in China
1028,Q198134,item,Boule-d'Amont,2.6136111111111,42.579444444444,"commune in Pyrénées-Orientales, France"
1029,Q198218,item,Negrões,-7.7847222222222,41.7425,civil parish in Montalegre
1030,Q198226,item,Zhujiang New City Tower,113.327271,23.118219,"skyscraper in Guangzhou City, Guangdong Province, China"
1031,Q198235,item,Zhuolu County,115.2132,40.37874,county
1032,Q198244,item,Zhuozhou,115.99176,39.48873,"county-level city  in Hebei province, China"
1033,Q198258,item,Sarraquinhos,-7.6638888888889,41.8,civil parish in Montalegre
1034,Q198260,item,Covelo do Gerês,-7.9830555555556,41.720277777778,civil parish in Montalegre
1035,Q198270,item,Chã,-7.7847222222222,41.784722222222,civil parish in Montalegre
1036,Q198275,item,Zi River,112.63333333333,28.8,"tributary of Yangtze in Hunan, China"
1037,Q198277,item,Covelães,-7.8980555555556,41.803055555556,locality and former civil parish in Portugal
1038,Q198310,item,Reigoso,-7.935,41.715277777778,civil parish in Montalegre
1039,Q198325,item,Étalante,4.7625,47.641388888889,"commune in Côte-d'Or, France"
1040,Q198347,item,Historical Museum Frankfurt,8.6825,50.1097,museum in Germany
1041,Q198349,item,Shumerlya,46.416666666667,55.5,human settlement in Russia
1042,Q198356,item,Cindrel Mountains,23.78333333,45.58333333,mountain range
1043,Q198385,item,Cabril,-8.0333333333333,41.716666666667,civil parish in Montalegre
1044,Q198391,item,Municipio de Filadelfia,-68.583333,-12.166667,municipality of Bolivia
1045,Q198409,item,Iona Abbey,-6.391384,56.334996,"abbey in Argyll and Bute, Scotland, UK"
1046,Q198561,item,Ziegelbach,10.1158,48.7378,tributary of the Brenz
1047,Q198570,item,Arnold,35.9,66.8,lunar impact crater
1048,Q198587,item,Nsanje District,35.166666666667,-16.75,district of Malawi
1049,Q198588,item,,9.17889,49.132922,
1050,Q198594,item,Saint-Barthélemy-le-Plain,4.7466666666667,45.054444444444,"commune in Ardèche, France"
1051,Q198629,item,Valros,3.3663888888889,43.420277777778,"commune in Hérault, France"
1052,Q198663,item,Olari,24.75,60.166666666667,"city district in Espoo, Finland"
1053,Q198750,item,,14.0284,52.7811,mountain
1054,Q198756,item,Fomerey,6.3391666666667,48.220555555556,"commune in Vosges, France"
1055,Q198774,item,,10.7486,49.2906,human settlement in Germany
1056,Q198775,item,Church of Saint-Nicolas of Bodružal,21.7072,49.3542,church
1057,Q198776,item,Yugorsk,63.35,61.316666666667,"human settlement in Khanty-Mansi Autonomous Okrug, Tyumen Oblast, Russia"
1058,Q198784,item,Vérargues,4.0997222222222,43.716111111111,"commune in Hérault, France"
1059,Q198799,item,Ziegenhardt,7.5597222222222,50.859722222222,human settlement in Germany
1060,Q198800,item,Ziegenhain,7.5255555555556,50.676111111111,German municipality
1061,Q198805,item,Ziegenkopf (Habichtswald),9.36903,51.3079,mountain
1062,Q198843,item,Ziegeunerwäldchen,9.68278,52.1894,"nature reserve in Lower Saxony, Germany"
1063,Q198882,item,Ziegram,13.3667,51.45,
1064,Q198973,item,Yanaul,54.933333333333,56.266666666667,"human settlement in Yanaulsky District, Republic of Bashkortostan, Russia"
1065,Q198985,item,Zieliński Palace in Kielce,20.625877,50.868111,palace
1066,Q199004,item,Yartsevo,32.683333333333,55.066666666667,town in Russia
1067,Q199022,item,Yasny,59.866666666667,51.033333333333,"human settlement in Yasnensky District, Orenburg Oblast, Russia"
1068,Q199066,item,Ziepel,11.3606,52.4936,human settlement in Germany
1069,Q199102,item,Zierker See,13.035963888889,53.361513888889,"lake in Neustrelitz, Mecklenburg-Vorpommern, Germany"
1070,Q199160,item,Uzeste,-0.32361111111111,44.441388888889,"commune in Gironde, France"
1071,Q199201,item,Ziersdorf,15.933333333333,48.533333333333,"municipality in Hollabrunn District, Lower Austria, Austria"
1072,Q199221,item,Zierzow,11.666666666667,53.266666666667,municipality of Germany
1073,Q199238,item,La Roche-Chalais,0.0088888888888889,45.151666666667,"commune in Dordogne, France"
1074,Q199260,item,Zieten-Kaserne,9.96944,51.5206,architectural structure
1075,Q199268,item,Ziethe,11.8047,51.7417,river in Germany
1076,Q199273,item,Dorset Street,-0.07504,51.5188,former street in London
1077,Q199331,item,Belvès-de-Castillon,-0.031111111111111,44.878333333333,"commune in Gironde, France"
1078,Q199359,item,Camping World Stadium,-81.402777777778,28.539166666667,"stadium in Orlando, Florida"
1079,Q199371,item,Battle of Megiddo,34.883,32.4,battle of the First World War which was fought in Ottoman Palestine
1080,Q199422,item,Nansha District,113.60833333333,22.838333333333,"district in Guangdong, People's Republic of China"
1081,Q199431,item,Zignago,9.7446333333333,44.277611111111,Italian comune
1082,Q199439,item,Varennes,0.67916666666667,44.831666666667,"commune in Dordogne, France"
1083,Q199455,item,Saint-Yrieix-le-Déjalat,1.9716666666667,45.456944444444,"commune in Corrèze, France"
1084,Q199483,item,Saint-Perdoux,0.53916666666667,44.740277777778,"commune in Dordogne, France"
1085,Q199535,item,Likholefossen,6.2731,61.32712,waterfall in Norway
1086,Q199611,item,Saint-Savin,-0.44861111111111,45.138611111111,"commune in Gironde, France"
1087,Q199712,item,Çanakkale,26.4,40.15,city in Turkey
1088,Q199713,item,Hikonari,139.8496111111111,35.841027777777775,"dissolved municipality in Kitakatsushika district, Saitama prefecture, Japan"
1089,Q199764,item,Rabouillet,2.3897222222222,42.731111111111,"commune in Pyrénées-Orientales, France"
1090,Q199773,item,Claira,2.9555555555556,42.760277777778,"commune in Pyrénées-Orientales, France"
1091,Q199821,item,Gran Colombia,-74.05,4.65,former republic
1092,Q199840,item,Brouilla,2.9036111111111,42.566666666667,"commune in Pyrénées-Orientales, France"
1093,Q199938,item,Tonlé Sap,104.06666666667,12.883333333333,lake in Cambodia
1094,Q199956,item,Oradour-Saint-Genest,1.035,46.238333333333,"commune in Haute-Vienne, France"
1095,Q199957,item,Småland,14.898,57.101,historical province in Sweden
1096,Q199958,item,Narcastet,-0.31972222222222,43.250833333333,"commune in Pyrénées-Atlantiques, France"
1097,Q199970,item,Jastrowie,16.815555555556,53.421666666667,Polish City
1098,Q199975,item,Ivanivka,37.945833333333,49.110833333333,"village in Lyman Raion, Donetsk Oblast, Ukraine"
1099,Q200004,item,Abbaye Sainte-Madeleine du Barroux,5.098257,44.151986,Benedictine monastery in southern France
1100,Q200014,item,Ivanovka,55.727777777778,52.763333333333,"human settlement in Kuyurgazinsky District, Republic of Bashkortostan, Russia"
1101,Q200018,item,Langerwehe,6.3497222222222,50.816666666667,"municipality in the Düren district, in North Rhine-Westphalia, Germany"
1102,Q200022,item,Matsuyama,132.76666666667,33.833333333333,"city in Ehime prefecture, Japan"
1103,Q200030,item,Latakia,35.791666666667,35.523611111111,principal port city of Syria
1104,Q200041,item,Linard,1.8730555555556,46.358333333333,"commune in Creuse, France"
1105,Q200047,item,Shida Kartli,44.0,42.183333333333,region in Georgia
1106,Q200048,item,Kvemo Kartli,44.516666666667,41.516666666667,region in southeastern Georgia
1107,Q200049,item,Ajmer,74.639,26.468,"city in Rajasthan, India"
1108,Q200103,item,Derbamont,6.2677777777778,48.268333333333,"commune in Vosges, France"
1109,Q200124,item,Vayots Dzor Region,45.5,39.75,region of Armenia
1110,Q200130,item,Azad Kashmir,73.764555555556,33.938083333333,region administered by Pakistan
1111,Q200133,item,Chalkida,23.595,38.4625,Greek city in Central Greece region
1112,Q200138,item,Heimbach,6.4830555555556,50.633055555556,"town in the Düren district, in North Rhine-Westphalia, Germany"
1113,Q200200,item,Assur,43.2625,35.456666666667,archaeological site in Iraq
1114,Q200202,item,Saint-Léonard-de-Noblat,1.4905555555556,45.8375,"commune in Haute-Vienne, France"
1115,Q200257,item,Gugnécourt,6.6236111111111,48.244166666667,"commune in Vosges, France"
1116,Q200330,item,Charmois-l'Orgueilleux,6.2705555555556,48.103333333333,"commune in Vosges, France"
1117,Q200425,item,Avenue Habib Bourguiba,10.185,36.8,avenue in Tunis
1118,Q200493,item,Crocq,2.3672222222222,45.868055555556,"commune in Creuse, France"
1119,Q200528,item,Vreden,6.8330555555556,52.033055555556,"town in the district of Borken, in North Rhine-Westphalia, Germany"
1120,Q200536,item,Battexey,6.1805555555556,48.389722222222,"commune in Vosges, France"
1121,Q200602,item,Isselburg,6.4666666666667,51.833055555556,"town in Borken District, in North Rhine-Westphalia, Germany"
1122,Q200634,item,Pégairolles-de-l'Escalette,3.3227777777778,43.802777777778,"commune in Hérault, France"
1123,Q200635,item,Mantiqueira Mountains,-44.85,-22.41666667,Saw in southeastern Brazil
1124,Q200653,item,WV24,32.6143,25.75,ancient Egyptian tomb
1125,Q200658,item,Haworth,-73.9974,40.9617,"borough in New Jersey, United States"
1126,Q200669,item,Žučkovac,21.79277778,43.68472222,human settlement
1127,Q200709,item,Słubice,14.566666666667,52.35,city of Poland
1128,Q200747,item,Wakayama,135.17075,34.23036111111111,"city in Wakayama prefecture, Japan"
1129,Q200775,item,Florida's Turnpike,-81.0846,27.9653,road
1130,Q200869,item,Hattstedt,9.024,54.528,former amt in Germany
1131,Q200917,item,Zaslaŭje,27.283333333333,54.0,city in Belarus
1132,Q200926,item,Nueva Toltén,-73.163885,-39.1782056,town in Chile
1133,Q200948,item,Torres del Paine,-72.35,-51.266666666667,commune of Chile
1134,Q200960,item,Krupki,29.136111111111,54.325,city in Belarus
1135,Q200961,item,Freire,-72.683333333333,-38.25,commune of Chile
1136,Q201001,item,Flavia Solva,15.568722,46.768972,ancient roman settlement in Austria
1137,Q201013,item,Svalbard Global Seed Vault,15.491372222222,78.235866666667,globally accessible seed vault located on the Norwegian island of Spitsbergen
1138,Q201017,item,Bona Espero,-47.61805556,-14.13361111,
1139,Q201036,item,Vitacura,-70.6,-33.4,commune of Chile
1140,Q201037,item,La Courtète,2.0436111111111,43.146388888889,"commune in Aude, France"
1141,Q201062,item,Ornaisons,2.8375,43.180833333333,"commune in Aude, France"
1142,Q201085,item,Prizren District,20.733333,42.216667,district of Serbia
1143,Q201095,item,Giresun,38.416666666667,40.9,city in Turkey
1144,Q201113,item,Cavignac,-0.39,45.100555555556,"commune in Gironde, France"
1145,Q201144,item,Cachapoal Province,-70.783333333333,-34.216666666667,province of Chile
1146,Q201149,item,Fife,-3.2,56.25,council area of Scotland
1147,Q201170,item,Bages,2.9911111111111,43.123333333333,"commune in Aude, France"
1148,Q201183,item,Schloss Fasanerie,9.70791,50.5077,"castle and museum in Eichenzell bei Fulda, Germany"
1149,Q201219,item,Egyptian Museum,31.233333,30.047778,museum in Cairo
1150,Q201285,item,Vogelsdorf,10.900555555556,52.011944444444,human settlement in Germany
1151,Q201307,item,Independence Stadium,28.269631,-15.371064,stadium
1152,Q201355,item,Biarrotte,-1.2722222222222,43.560833333333,"commune in Landes, France"
1153,Q201374,item,Ingeniero Aeronáutico Ambrosio L.V. Taravella International Airport,-64.20833333,-31.31,"international airport serving Cordoba, Argentina"
1154,Q201420,item,Saint-Palais,-0.58972222222222,45.313888888889,"commune in Gironde, France"
1155,Q201440,item,canton of Soisy-sous-Montmorency,2.3,48.983333,canton of France (until March 2015)
1156,Q201462,item,Little Italy,-73.997327777778,40.719141666667,neighborhood in New York City
1157,Q201498,item,Hintersee,12.8486,47.6047,human settlement in Germany
1158,Q201511,item,"Großensee, Thuringia",9.9666666666667,50.933055555556,municipality of Germany
1159,Q201542,item,1929 Arthur's Pass earthquake,171.928,-42.791,earthquake
1160,Q201545,item,Puy-d'Arnac,1.7858333333333,45.0275,"commune in Corrèze, France"
1161,Q201582,item,Pindus,20.75,40.0,mountain range
1162,Q201647,item,Aghdam District,46.928611,39.983611,district of Azerbaijan
1163,Q201694,item,Götaland,14.683333333333,57.65,southernmost land of Sweden
1164,Q201729,item,Sanok,22.216666666667,49.55,city and urban gmina of Poland
1165,Q201731,item,La Loma,-58.33722222,-33.425,Uruguay
1166,Q201743,item,Adam's Bridge,79.5217,9.121,landform
1167,Q201760,item,Saint-Médard-de-Guizières,-0.058888888888889,45.015277777778,"commune in Gironde, France"
1168,Q201773,item,Hongkou Football Stadium,121.4762,31.2733,"association football stadium in Shanghai, China"
1169,Q201804,item,Saint-Étienne-de-Fursac,1.5141666666667,46.144166666667,"former commune in Creuse, France"
1170,Q201823,item,Warta,19.4899,50.4907,river in Poland
1171,Q201844,item,Wicked,-111.896,40.9839,"launched steel roller coaster in Lagoon Amusement Park, Utah"
1172,Q201892,item,Chenaud,0.10333333333333,45.218055555556,"former commune in Dordogne, France"
1173,Q202033,item,Maison Pflüger de Bouxwiller,7.481388,48.824077,house
1174,Q202061,item,Dietershofen,9.1625,47.97666667,"quarter of Meßkirch, Baden-Württemberg, Germany"
1175,Q202075,item,Guárico,-66.61,8.7,state of Venezuela
1176,Q202105,item,St. Georg (Bogenhausen),11.6014983786025,48.1478180837045,church building in Munich
1177,Q202118,item,Aubazines,1.67,45.174166666667,"commune in Corrèze, France"
1178,Q202120,item,Luisenpark,8.4974,49.4827,garden in Mannheim
1179,Q202124,item,Issigeac,0.60722222222222,44.729722222222,"commune in Dordogne, France"
1180,Q202131,item,Villamblard,0.54,45.021944444444,"commune in Dordogne, France"
1181,Q202157,item,Fromental,1.3963888888889,46.159166666667,"commune in Haute-Vienne, France"
1182,Q202163,item,Luzhniki Stadium,37.553611111111,55.715833333333,sports stadium in Russia
1183,Q202170,item,Borðoy,-6.55,62.233333333333,island in the Faroe Islands
1184,Q202174,item,Argyll and Bute,-5.45,55.98333333,unitary authority council area in Scotland
1185,Q202177,item,Angus,-2.9166666666667,56.666666666667,council area of Scotland
1186,Q202202,item,Domagnano,12.468889,43.947778,municipality of San Marino
